[{"name": "Wiley Post Will Rogers Memorial Airport", "city": "Barrow", "state": "Alaska", "country": "United States", "lat": 71.2892, "lon": -156.772, "id": 1, "weight": 0.22290000000000001, "count": 3}, {"name": "Deadhorse Airport", "city": "Prudhoe Bay", "state": "Alaska", "country": "United States", "lat": 70.1975, "lon": -148.458, "id": 2, "weight": 0.1817, "count": 3}, {"name": "Ralph Wien Memorial Airport", "city": "Kotzebue", "state": "Alaska", "country": "United States", "lat": 66.8893, "lon": -162.61, "id": 3, "weight": 0.1112, "count": 2}, {"name": "Fairbanks International Airport", "city": "Fairbanks", "state": "Alaska", "country": "United States", "lat": 64.8183, "lon": -147.866, "id": 4, "weight": 0.46709999999999996, "count": 5}, {"name": "Nome Airport", "city": "Nome", "state": "Alaska", "country": "United States", "lat": 64.5125, "lon": -165.445, "id": 5, "weight": 0.11180000000000001, "count": 2}, {"name": "Alaska", "city": "Saint Marys", "state": "Alaska", "country": "United States", "lat": 62.0503, "lon": -163.179, "id": 6, "weight": 0.1023, "count": 3}, {"name": "Aniak Airport", "city": "Bethel", "state": "Alaska", "country": "United States", "lat": 61.5742, "lon": -159.535, "id": 7, "weight": 0.0825, "count": 3}, {"name": "Anchorage International Airport", "city": "Anchorage", "state": "Alaska", "country": "United States", "lat": 61.1767, "lon": -149.961, "id": 8, "weight": 4.312200000000001, "count": 29}, {"name": "Tuluksak", "city": "Tuluksak", "state": "Alaska", "country": "United States", "lat": 61.0959, "lon": -160.968, "id": 9, "weight": 0.0142, "count": 4}, {"name": "Akiachak", "city": "Akiachak", "state": "Alaska", "country": "United States", "lat": 60.9057, "lon": -161.424, "id": 10, "weight": 0.0074, "count": 4}, {"name": "Akiak Airport", "city": "Bethel", "state": "Alaska", "country": "United States", "lat": 60.8866, "lon": -161.218, "id": 11, "weight": 0.0066, "count": 3}, {"name": "Kwethluk Airport", "city": "Kwethluk", "state": "Alaska", "country": "United States", "lat": 60.8, "lon": -161.45, "id": 12, "weight": 0.0067, "count": 3}, {"name": "Bethel Airport", "city": "Bethel", "state": "Alaska", "country": "United States", "lat": 60.7788, "lon": -161.847, "id": 13, "weight": 0.1456, "count": 14}, {"name": "Alaska", "city": "Napaskiak", "state": "Alaska", "country": "United States", "lat": 60.7049, "lon": -161.766, "id": 14, "weight": 0.0009, "count": 1}, {"name": "Napaskiak", "city": "Napakiak", "state": "Alaska", "country": "United States", "lat": 60.7049, "lon": -161.766, "id": 15, "weight": 0.0011, "count": 1}, {"name": "Merle K Mudhole Smith Airport", "city": "Cordova", "state": "Alaska", "country": "United States", "lat": 60.4924, "lon": -145.475, "id": 16, "weight": 0.055, "count": 2}, {"name": "Tuntutuliak", "city": "Tuntutuliak", "state": "Alaska", "country": "United States", "lat": 60.3432, "lon": -162.664, "id": 17, "weight": 0.015099999999999999, "count": 3}, {"name": "Eek Airport", "city": "Eek", "state": "Alaska", "country": "United States", "lat": 60.2167, "lon": -162.017, "id": 18, "weight": 0.0055, "count": 1}, {"name": "Alaska", "city": "Kongiganak", "state": "Alaska", "country": "United States", "lat": 62.8903, "lon": -149.054, "id": 19, "weight": 0.015099999999999999, "count": 3}, {"name": "Kwigillingok", "city": "Kwigillingok", "state": "Alaska", "country": "United States", "lat": 59.9077, "lon": -163.026, "id": 20, "weight": 0.0183, "count": 3}, {"name": "Quinhagak", "city": "Quinhagak", "state": "Alaska", "country": "United States", "lat": 59.7511, "lon": -161.908, "id": 21, "weight": 0.0098, "count": 1}, {"name": "Yakutat Airport", "city": "Yakutat", "state": "Alaska", "country": "United States", "lat": 59.5103, "lon": -139.668, "id": 22, "weight": 0.0592, "count": 2}, {"name": "Dillingham Municipal Airport", "city": "Dillingham", "state": "Alaska", "country": "United States", "lat": 59.0445, "lon": -158.513, "id": 23, "weight": 0.057800000000000004, "count": 2}, {"name": "King Salmon Airport", "city": "King Salmon", "state": "Alaska", "country": "United States", "lat": 58.6775, "lon": -156.655, "id": 24, "weight": 0.0514, "count": 2}, {"name": "Gustavus Airport", "city": "Gustavus", "state": "Alaska", "country": "United States", "lat": 58.4246, "lon": -135.707, "id": 25, "weight": 0.0057, "count": 1}, {"name": "Juneau International Airport", "city": "Juneau", "state": "Alaska", "country": "United States", "lat": 58.3598, "lon": -134.583, "id": 26, "weight": 0.39220000000000005, "count": 8}, {"name": "Kodiak Airport", "city": "Kodiak", "state": "Alaska", "country": "United States", "lat": 57.7545, "lon": -152.512, "id": 27, "weight": 0.0351, "count": 1}, {"name": "Saint Paul Island", "city": "Saint Paul Island", "state": "Alaska", "country": "United States", "lat": 57.1667, "lon": -170.217, "id": 28, "weight": 0.1524, "count": 2}, {"name": "Sitka Airport", "city": "Sitka", "state": "Alaska", "country": "United States", "lat": 57.0535, "lon": -135.366, "id": 29, "weight": 0.1637, "count": 4}, {"name": "Port Heiden Airport", "city": "Port Heiden", "state": "Alaska", "country": "United States", "lat": 56.9667, "lon": -158.633, "id": 30, "weight": 0.078, "count": 2}, {"name": "Petersburg James A Johnson Airport", "city": "Petersburg", "state": "Alaska", "country": "United States", "lat": 56.8067, "lon": -132.933, "id": 31, "weight": 0.033800000000000004, "count": 3}, {"name": "Wrangell Airport", "city": "Wrangell", "state": "Alaska", "country": "United States", "lat": 56.4876, "lon": -132.378, "id": 32, "weight": 0.0156, "count": 2}, {"name": "Ketchikan International Airport", "city": "Ketchikan", "state": "Alaska", "country": "United States", "lat": 55.354, "lon": -131.706, "id": 33, "weight": 0.1577, "count": 4}, {"name": "Sand Point Airport", "city": "Sand Point", "state": "Alaska", "country": "United States", "lat": 55.3184, "lon": -160.523, "id": 34, "weight": 0.0958, "count": 2}, {"name": "Cold Bay Airport", "city": "Cold Bay", "state": "Alaska", "country": "United States", "lat": 55.2005, "lon": -162.705, "id": 35, "weight": 0.152, "count": 3}, {"name": "Unalaska Airport", "city": "Unalaska", "state": "Alaska", "country": "United States", "lat": 53.896, "lon": -166.535, "id": 36, "weight": 0.18739999999999998, "count": 3}, {"name": "Eareckson As", "city": "Shemya", "state": "Alaska", "country": "United States", "lat": 52.712222, "lon": 174.113611, "id": 37, "weight": 0.2477, "count": 2}, {"name": "Adak Naf", "city": "Adak", "state": "Alaska", "country": "United States", "lat": 51.878056, "lon": -176.646111, "id": 38, "weight": 0.2649, "count": 3}, {"name": "Bellingham International Airport", "city": "Bellingham", "state": "Washington", "country": "United States", "lat": 48.7955, "lon": -122.532, "id": 39, "weight": 0.1271, "count": 3}, {"name": "Glacier Park International Airport", "city": "Kalispell", "state": "Montana", "country": "United States", "lat": 48.3075, "lon": -114.252, "id": 40, "weight": 0.2027, "count": 7}, {"name": "Minot International Airport", "city": "Minot", "state": "North Dakota", "country": "United States", "lat": 48.2554, "lon": -101.291, "id": 41, "weight": 0.1498, "count": 3}, {"name": "William R Fairchild International Airport", "city": "Port Angeles", "state": "Washington", "country": "United States", "lat": 48.1155, "lon": -123.491, "id": 42, "weight": 0.0089, "count": 1}, {"name": "Grand Forks Afb", "city": "Grand Forks", "state": "North Dakota", "country": "United States", "lat": 47.961110999999995, "lon": -97.401111, "id": 43, "weight": 0.0364, "count": 1}, {"name": "Grand Forks Mark Andrews International Airport", "city": "Grand Forks", "state": "North Dakota", "country": "United States", "lat": 47.9494, "lon": -97.1762, "id": 44, "weight": 0.0356, "count": 1}, {"name": "Spokane International Airport", "city": "Spokane", "state": "Washington", "country": "United States", "lat": 47.625, "lon": -117.538, "id": 45, "weight": 0.9671000000000003, "count": 19}, {"name": "Great Falls International Airport", "city": "Great Falls", "state": "Montana", "country": "United States", "lat": 47.482, "lon": -111.356, "id": 46, "weight": 0.26969999999999994, "count": 8}, {"name": "Tacoma International Airport", "city": "Seattle", "state": "Washington", "country": "United States", "lat": 47.4405, "lon": -122.296, "id": 47, "weight": 7.637599999999999, "count": 57}, {"name": "Pangborn Memorial Airport", "city": "East Wenatchee", "state": "Washington", "country": "United States", "lat": 47.4048, "lon": -120.21, "id": 48, "weight": 0.036699999999999997, "count": 3}, {"name": "Grant County International Airport", "city": "Grant County Airport", "state": "Washington", "country": "United States", "lat": 47.20769882, "lon": -119.3199997, "id": 49, "weight": 0.0408, "count": 4}, {"name": "Missoula International Airport", "city": "Missoula", "state": "Montana", "country": "United States", "lat": 46.9192, "lon": -114.084, "id": 50, "weight": 0.3697, "count": 10}, {"name": "Hector International Airport", "city": "Fargo", "state": "North Dakota", "country": "United States", "lat": 46.9195, "lon": -96.8243, "id": 51, "weight": 0.2037, "count": 4}, {"name": "Duluth International Airport", "city": "Duluth", "state": "Minnesota", "country": "United States", "lat": 46.838, "lon": -92.1781, "id": 52, "weight": 0.0194, "count": 1}, {"name": "Bismarck Municipal Airport", "city": "Bismarck", "state": "North Dakota", "country": "United States", "lat": 46.7745, "lon": -100.757, "id": 53, "weight": 0.2446, "count": 5}, {"name": "Pullman-Moscow Regional Airport", "city": "Pullman", "state": "Washington", "country": "United States", "lat": 46.743, "lon": -117.119, "id": 54, "weight": 0.12030000000000002, "count": 7}, {"name": "Helena Regional Airport", "city": "Helena", "state": "Montana", "country": "United States", "lat": 46.6104, "lon": -111.99, "id": 55, "weight": 0.16040000000000001, "count": 8}, {"name": "Yakima Air Terminal", "city": "Yakima", "state": "Washington", "country": "United States", "lat": 46.5703, "lon": -120.54, "id": 56, "weight": 0.07319999999999999, "count": 6}, {"name": "Marquette County", "city": "Negaunee", "state": "Michigan", "country": "United States", "lat": 46.533883, "lon": -87.562556, "id": 57, "weight": 0.10289999999999999, "count": 4}, {"name": "Lewiston Nez Perce County Airport", "city": "Lewiston", "state": "Idaho", "country": "United States", "lat": 46.3776, "lon": -117.011, "id": 58, "weight": 0.13669999999999996, "count": 8}, {"name": "Tri-Cities Regional Airport", "city": "Blountville", "state": "Tennessee", "country": "United States", "lat": 36.4805, "lon": -82.4087, "id": 59, "weight": 0.18739999999999998, "count": 10}, {"name": "Walla Walla Regional Airport", "city": "Walla Walla", "state": "Washington", "country": "United States", "lat": 46.0879, "lon": -118.283, "id": 60, "weight": 0.096, "count": 8}, {"name": "Bert Mooney Airport", "city": "Butte", "state": "Montana", "country": "United States", "lat": 45.9544, "lon": -112.503, "id": 61, "weight": 0.1005, "count": 6}, {"name": "Logan International Airport", "city": "Billings", "state": "Montana", "country": "United States", "lat": 45.8034, "lon": -108.537, "id": 62, "weight": 0.38110000000000005, "count": 10}, {"name": "Gallatin Field Airport", "city": "Bozeman", "state": "Montana", "country": "United States", "lat": 45.7722, "lon": -111.157, "id": 63, "weight": 0.3063, "count": 9}, {"name": "Eastern Oregon Regional Airport", "city": "Pendleton", "state": "Oregon", "country": "United States", "lat": 45.6893, "lon": -118.839, "id": 64, "weight": 0.029599999999999998, "count": 3}, {"name": "Portland International Airport", "city": "Portland", "state": "Oregon", "country": "United States", "lat": 45.5867, "lon": -122.587, "id": 65, "weight": 3.3865000000000003, "count": 41}, {"name": "Mcnary Fld", "city": "Salem", "state": "Oregon", "country": "United States", "lat": 44.909444, "lon": -123.0025, "id": 66, "weight": 0.0917, "count": 4}, {"name": "Minneapolis St Paul International Airport", "city": "St. Paul", "state": "Minnesota", "country": "United States", "lat": 44.8793, "lon": -93.1987, "id": 67, "weight": 7.968699999999998, "count": 78}, {"name": "Bangor International Airport", "city": "Bangor", "state": "Maine", "country": "United States", "lat": 44.8086, "lon": -68.8167, "id": 68, "weight": 0.2425, "count": 6}, {"name": "Central Wisconsin Airport", "city": "Mosinee", "state": "Wisconsin", "country": "United States", "lat": 44.7846, "lon": -89.6704, "id": 69, "weight": 0.0642, "count": 4}, {"name": "Cherry Capital Airport", "city": "Traverse City", "state": "Michigan", "country": "United States", "lat": 44.7365, "lon": -85.5796, "id": 70, "weight": 0.0755, "count": 3}, {"name": "Austin Straubel International Airport", "city": "Green Bay", "state": "Wisconsin", "country": "United States", "lat": 44.4923, "lon": -88.1274, "id": 71, "weight": 0.15869999999999998, "count": 9}, {"name": "Burlington International Airport", "city": "South Burlington", "state": "Vermont", "country": "United States", "lat": 44.4688, "lon": -73.1552, "id": 72, "weight": 0.3226, "count": 7}, {"name": "Outagamie County Airport", "city": "Appleton", "state": "Wisconsin", "country": "United States", "lat": 44.2603, "lon": -88.5111, "id": 73, "weight": 0.0597, "count": 6}, {"name": "Roberts Field Airport", "city": "Redmond", "state": "Oregon", "country": "United States", "lat": 44.2533, "lon": -121.162, "id": 74, "weight": 0.14029999999999998, "count": 5}, {"name": "Mahlon Sweet Field Airport", "city": "Eugene", "state": "Oregon", "country": "United States", "lat": 44.1184, "lon": -123.213, "id": 75, "weight": 0.30150000000000005, "count": 9}, {"name": "Rapid City Regional Airport", "city": "Rapid City", "state": "South Dakota", "country": "United States", "lat": 44.037, "lon": -103.06, "id": 76, "weight": 0.31020000000000003, "count": 6}, {"name": "Wittman Regional Airport", "city": "Oshkosh", "state": "Wisconsin", "country": "United States", "lat": 43.98440170000001, "lon": -88.55699921, "id": 77, "weight": 0.0378, "count": 4}, {"name": "Rochester International", "city": "Rochester", "state": "Minnesota", "country": "United States", "lat": 43.908333, "lon": -92.5, "id": 78, "weight": 0.0461, "count": 3}, {"name": "La Crosse Municipal Airport", "city": "La Crosse", "state": "Wisconsin", "country": "United States", "lat": 43.8751, "lon": -91.2638, "id": 79, "weight": 0.0451, "count": 3}, {"name": "Jetport International Airport", "city": "Portland", "state": "Maine", "country": "United States", "lat": 43.6475, "lon": -70.3103, "id": 80, "weight": 0.4503, "count": 10}, {"name": "Jackson Hole Airport", "city": "Jackson", "state": "Wyoming", "country": "United States", "lat": 43.6034, "lon": -110.736, "id": 81, "weight": 0.323, "count": 5}, {"name": "Sioux Falls Regional Airport", "city": "Sioux Falls", "state": "South Dakota", "country": "United States", "lat": 43.5813, "lon": -96.7317, "id": 82, "weight": 0.43910000000000005, "count": 11}, {"name": "Boise Air Terminal", "city": "Boise", "state": "Idaho", "country": "United States", "lat": 43.5709, "lon": -116.222, "id": 83, "weight": 0.6818999999999998, "count": 15}, {"name": "MBS International Airport", "city": "Freeland", "state": "Michigan", "country": "United States", "lat": 43.5311, "lon": -84.0933, "id": 84, "weight": 0.0376, "count": 2}, {"name": "Fanning Field Airport", "city": "Idaho Falls", "state": "Idaho", "country": "United States", "lat": 43.5147, "lon": -112.068, "id": 85, "weight": 0.1877, "count": 5}, {"name": "Friedman Memorial Airport", "city": "Hailey", "state": "Idaho", "country": "United States", "lat": 43.5065, "lon": -114.301, "id": 86, "weight": 0.09390000000000001, "count": 3}, {"name": "North Bend Municipal Airport", "city": "North Bend", "state": "Oregon", "country": "United States", "lat": 43.4141, "lon": -124.244, "id": 87, "weight": 0.0464, "count": 3}, {"name": "Muskegon County Airport", "city": "Muskegon", "state": "Michigan", "country": "United States", "lat": 43.1646, "lon": -86.2367, "id": 88, "weight": 0.0142, "count": 1}, {"name": "Rhinelander-Oneida County Airport", "city": "Rhinelander", "state": "Wisconsin", "country": "United States", "lat": 45.626000000000005, "lon": -89.4626, "id": 89, "weight": 0.0386, "count": 1}, {"name": "Dane County Regional Airport-Truax Field", "city": "Madison", "state": "Wisconsin", "country": "United States", "lat": 43.1351, "lon": -89.3465, "id": 90, "weight": 0.2846, "count": 9}, {"name": "Greater Rochester International Airport", "city": "Rochester", "state": "New York", "country": "United States", "lat": 43.1309, "lon": -77.6697, "id": 91, "weight": 0.7261000000000001, "count": 18}, {"name": "Hancock International Airport", "city": "Syracuse", "state": "New York", "country": "United States", "lat": 43.1141, "lon": -76.1121, "id": 92, "weight": 0.9483, "count": 20}, {"name": "Bishop International Airport", "city": "Flint", "state": "Michigan", "country": "United States", "lat": 42.9756, "lon": -83.7411, "id": 93, "weight": 0.087, "count": 4}, {"name": "General Mitchell International Airport", "city": "Milwaukee", "state": "Wisconsin", "country": "United States", "lat": 42.9471, "lon": -87.9051, "id": 94, "weight": 2.8923000000000005, "count": 34}, {"name": "Greater Buffalo International Airport", "city": "Buffalo", "state": "New York", "country": "United States", "lat": 42.9309, "lon": -78.738, "id": 95, "weight": 0.9813999999999999, "count": 22}, {"name": "Manchester\u201a\u00c4\u00ecBoston Regional Airport", "city": "Manchester", "state": "New Hampshire", "country": "United States", "lat": 42.9325, "lon": -71.435556, "id": 96, "weight": 0.2838, "count": 7}, {"name": "Pocatello Municipal Airport", "city": "Pocatello", "state": "Idaho", "country": "United States", "lat": 42.9056, "lon": -112.588, "id": 97, "weight": 0.0364, "count": 3}, {"name": "Natrona County International Airport", "city": "Casper", "state": "Wyoming", "country": "United States", "lat": 42.8966, "lon": -106.465, "id": 98, "weight": 0.0551, "count": 2}, {"name": "Gerald R. Ford International Airport", "city": "Cascade Charter Township", "state": "Michigan", "country": "United States", "lat": 42.880833, "lon": -85.522778, "id": 99, "weight": 0.2771, "count": 9}, {"name": "Lansing Capital City Airport", "city": "Lansing", "state": "Michigan", "country": "United States", "lat": 42.7728, "lon": -84.5888, "id": 100, "weight": 0.11499999999999999, "count": 7}, {"name": "Albany County", "city": "Latham", "state": "New York", "country": "United States", "lat": 42.749167, "lon": -73.801944, "id": 101, "weight": 0.6618, "count": 14}, {"name": "Waterloo Municipal Airport", "city": "Waterloo", "state": "Iowa", "country": "United States", "lat": 42.5509, "lon": -92.3951, "id": 102, "weight": 0.0774, "count": 4}, {"name": "Tompkins County Airport", "city": "Ithaca", "state": "New York", "country": "United States", "lat": 42.4898, "lon": -76.4627, "id": 103, "weight": 0.0309, "count": 2}, {"name": "Twin Falls-Sun Valley Regional Airport", "city": "Twin Falls", "state": "Idaho", "country": "United States", "lat": 42.4838, "lon": -114.485, "id": 104, "weight": 0.044700000000000004, "count": 3}, {"name": "Detroit City", "city": "Detroit", "state": "Michigan", "country": "United States", "lat": 42.409167, "lon": -83.01, "id": 105, "weight": 0.1066, "count": 3}, {"name": "Sioux Gateway Airport", "city": "Sioux City", "state": "Iowa", "country": "United States", "lat": 42.4012, "lon": -96.3784, "id": 106, "weight": 0.1905, "count": 6}, {"name": "Dubuque Regional Airport", "city": "Dubuque", "state": "Iowa", "country": "United States", "lat": 42.4047, "lon": -90.7037, "id": 107, "weight": 0.0236, "count": 2}, {"name": "Rogue Valley International-Medford Airport", "city": "Central Point", "state": "Oregon", "country": "United States", "lat": 42.3691, "lon": -122.874, "id": 108, "weight": 0.0992, "count": 4}, {"name": "Gen E L Logan International Airport", "city": "Boston", "state": "Massachusetts", "country": "United States", "lat": 42.3717, "lon": -71.0281, "id": 109, "weight": 5.3736, "count": 50}, {"name": "Worcester Municipal Airport", "city": "Worcester", "state": "Massachusetts", "country": "United States", "lat": 42.2699, "lon": -71.8706, "id": 110, "weight": 0.0744, "count": 2}, {"name": "Kalamazoo-Battle Creek International Airport", "city": "Kalamazoo", "state": "Michigan", "country": "United States", "lat": 42.2398, "lon": -85.5563, "id": 111, "weight": 0.15739999999999998, "count": 7}, {"name": "Detroit Metropolitan Wayne County Airport", "city": "Detroit", "state": "Michigan", "country": "United States", "lat": 42.2327, "lon": -83.3412, "id": 112, "weight": 5.791599999999999, "count": 70}, {"name": "Greater Binghamton Edwin A Link Field Airport", "city": "Johnson City", "state": "New York", "country": "United States", "lat": 42.2082, "lon": -75.9825, "id": 113, "weight": 0.0563, "count": 2}, {"name": "Greater Rockford Airport", "city": "Rockford", "state": "Illinois", "country": "United States", "lat": 42.2035, "lon": -89.0955, "id": 114, "weight": 0.0065, "count": 1}, {"name": "Elmira Corning Regional Airport", "city": "Horseheads", "state": "New York", "country": "United States", "lat": 42.1633, "lon": -76.8973, "id": 115, "weight": 0.027100000000000003, "count": 2}, {"name": "Klamath Falls International Airport", "city": "Klamath Falls", "state": "Oregon", "country": "United States", "lat": 42.1638, "lon": -121.745, "id": 116, "weight": 0.12279999999999999, "count": 6}, {"name": "Erie International Airport", "city": "Erie", "state": "Pennsylvania", "country": "United States", "lat": 42.0829, "lon": -80.1824, "id": 117, "weight": 0.0152, "count": 1}, {"name": "Chicago O'Hare International Airport", "city": "Chicago", "state": "Illinois", "country": "United States", "lat": 41.9796, "lon": -87.8825, "id": 118, "weight": 11.334100000000001, "count": 139}, {"name": "Bradley International Airport", "city": "Windsor Locks", "state": "Connecticut", "country": "United States", "lat": 41.9271, "lon": -72.6816, "id": 119, "weight": 2.206600000000001, "count": 29}, {"name": "Cedar Rapids Municipal Airport", "city": "Cedar Rapids", "state": "Iowa", "country": "United States", "lat": 41.8893, "lon": -91.7008, "id": 120, "weight": 0.31989999999999996, "count": 8}, {"name": "William B Heilig Field Airport", "city": "Scottsbluff", "state": "Nebraska", "country": "United States", "lat": 41.8683, "lon": -103.597, "id": 121, "weight": 0.0629, "count": 1}, {"name": "Merrill C Meigs", "city": "Merrill C Meigs", "state": "illinois", "country": "United States", "lat": 41.86, "lon": -87.608611, "id": 122, "weight": 0.022, "count": 1}, {"name": "Chicago Midway International Airport", "city": "Chicago", "state": "Illinois", "country": "United States", "lat": 41.7875, "lon": -87.7416, "id": 123, "weight": 2.0886, "count": 26}, {"name": "Jack Mcnamara Field Airport", "city": "Crescent City", "state": "California", "country": "United States", "lat": 41.7765, "lon": -124.237, "id": 124, "weight": 0.048400000000000006, "count": 2}, {"name": "Theodore Francis Green State Airport", "city": "Warwick", "state": "Rhode Island", "country": "United States", "lat": 41.723, "lon": -71.4399, "id": 125, "weight": 0.8479, "count": 15}, {"name": "South Bend Regional Airport", "city": "South Bend", "state": "Indiana", "country": "United States", "lat": 41.7006, "lon": -86.311, "id": 126, "weight": 0.20169999999999996, "count": 8}, {"name": "Toledo Express Airport", "city": "Swanton", "state": "Ohio", "country": "United States", "lat": 41.5923, "lon": -83.8072, "id": 127, "weight": 0.1274, "count": 4}, {"name": "Des Moines International Airport", "city": "Des Moines", "state": "Iowa", "country": "United States", "lat": 41.5328, "lon": -93.6481, "id": 128, "weight": 0.5522, "count": 9}, {"name": "Stewart International Airport", "city": "New Windsor", "state": "New York", "country": "United States", "lat": 41.4869, "lon": -74.0974, "id": 129, "weight": 0.26570000000000005, "count": 5}, {"name": "Quad City Airport", "city": "Coal Valley", "state": "Illinois", "country": "United States", "lat": 41.4539, "lon": -90.5058, "id": 130, "weight": 0.32389999999999997, "count": 9}, {"name": "Hopkins International Airport", "city": "Cleveland", "state": "Ohio", "country": "United States", "lat": 41.4115, "lon": -81.8339, "id": 131, "weight": 3.716400000000001, "count": 45}, {"name": "Wilkes Barre Scranton International Airport", "city": "Pittston", "state": "Pennsylvania", "country": "United States", "lat": 41.3354, "lon": -75.7294, "id": 132, "weight": 0.1956, "count": 4}, {"name": "Eppley Airfield", "city": "Omaha", "state": "Nebraska", "country": "United States", "lat": 41.3, "lon": -95.8998, "id": 133, "weight": 0.9343000000000001, "count": 15}, {"name": "Tweed New Haven Airport", "city": "East Haven", "state": "Connecticut", "country": "United States", "lat": 41.2709, "lon": -72.89, "id": 134, "weight": 0.0814, "count": 2}, {"name": "Youngstown-Warren Regional Airport", "city": "Vienna", "state": "Ohio", "country": "United States", "lat": 41.2576, "lon": -80.6648, "id": 135, "weight": 0.005, "count": 1}, {"name": "Westchester County Airport", "city": "Purchase", "state": "New York", "country": "United States", "lat": 41.0693, "lon": -73.7042, "id": 136, "weight": 0.2672, "count": 5}, {"name": "Fort Wayne Municipal Airport-Baer Field", "city": "Fort Wayne", "state": "Indiana", "country": "United States", "lat": 40.9883, "lon": -85.1899, "id": 137, "weight": 0.2126, "count": 10}, {"name": "Arcata Airport", "city": "Mckinleyville", "state": "California", "country": "United States", "lat": 40.9698, "lon": -124.108, "id": 138, "weight": 0.0662, "count": 3}, {"name": "Akron Canton Regional Airport", "city": "Canton", "state": "Ohio", "country": "United States", "lat": 40.9149, "lon": -81.4309, "id": 139, "weight": 0.21820000000000003, "count": 8}, {"name": "Lincoln Municipal Airport", "city": "Lincoln", "state": "Nebraska", "country": "United States", "lat": 40.8461, "lon": -96.7543, "id": 140, "weight": 0.1745, "count": 6}, {"name": "University Park Airport", "city": "State College", "state": "Pennsylvania", "country": "United States", "lat": 40.8515, "lon": -77.851, "id": 141, "weight": 0.0266, "count": 2}, {"name": "Elko Municipal Airport-J C Harris Field", "city": "Elko", "state": "Nevada", "country": "United States", "lat": 40.829, "lon": -115.78, "id": 142, "weight": 1.4548999999999996, "count": 17}, {"name": "Long Island Macarthur Airport", "city": "Ronkonkoma", "state": "New York", "country": "United States", "lat": 40.7891, "lon": -73.0984, "id": 143, "weight": 0.8773000000000001, "count": 13}, {"name": "Salt Lake City International Airport", "city": "Salt Lake City", "state": "Utah", "country": "United States", "lat": 40.7862, "lon": -111.982, "id": 144, "weight": 5.080599999999999, "count": 59}, {"name": "Burlington Alamance Regional Airport", "city": "Burlington", "state": "North Carolina", "country": "United States", "lat": 36.04850006, "lon": -79.47489929, "id": 145, "weight": 0.0543, "count": 4}, {"name": "LaGuardia Airport", "city": "Flushing", "state": "New York", "country": "United States", "lat": 40.7731, "lon": -73.8756, "id": 146, "weight": 3.6887, "count": 50}, {"name": "Newark International Airport", "city": "Newark", "state": "New Jersey", "country": "United States", "lat": 40.6924, "lon": -74.1843, "id": 147, "weight": 6.3050999999999995, "count": 67}, {"name": "Greater Peoria Regional Airport", "city": "Peoria", "state": "Illinois", "country": "United States", "lat": 40.6663, "lon": -89.6909, "id": 148, "weight": 0.13739999999999997, "count": 6}, {"name": "Lehigh Valley International Airport", "city": "Allentown", "state": "Pennsylvania", "country": "United States", "lat": 40.6514, "lon": -75.4342, "id": 149, "weight": 0.329, "count": 7}, {"name": "John F Kennedy International Airport", "city": "Jamaica", "state": "New York", "country": "United States", "lat": 40.6437, "lon": -73.79, "id": 150, "weight": 4.983600000000001, "count": 46}, {"name": "Redding Municipal Airport", "city": "Redding", "state": "California", "country": "United States", "lat": 40.5056, "lon": -122.302, "id": 151, "weight": 0.169, "count": 5}, {"name": "Pittsburgh International Airport", "city": "Coraopolis", "state": "Pennsylvania", "country": "United States", "lat": 40.4914, "lon": -80.2328, "id": 152, "weight": 6.1193, "count": 94}, {"name": "Yampa Valley Airport", "city": "Hayden", "state": "Colorado", "country": "United States", "lat": 40.485, "lon": -107.219, "id": 153, "weight": 0.8653, "count": 9}, {"name": "Bloomington Normal Airport", "city": "Bloomington", "state": "Illinois", "country": "United States", "lat": 40.4841, "lon": -88.9134, "id": 154, "weight": 0.052199999999999996, "count": 4}, {"name": "Purdue University Airport", "city": "Lafayette", "state": "Indiana", "country": "United States", "lat": 40.41230011, "lon": -86.93689728, "id": 155, "weight": 0.025099999999999997, "count": 2}, {"name": "Mercer County Airport", "city": "Bluefield", "state": "New Jersey", "country": "United States", "lat": 37.29579926, "lon": -81.20770264, "id": 156, "weight": 0.0277, "count": 1}, {"name": "Harrisburg International Airport", "city": "Middletown", "state": "Pennsylvania", "country": "United States", "lat": 40.1962, "lon": -76.7564, "id": 157, "weight": 0.31299999999999994, "count": 9}, {"name": "University of Illinois-Willard Airport", "city": "Savoy", "state": "Illinois", "country": "United States", "lat": 40.0367, "lon": -88.2638, "id": 158, "weight": 0.1135, "count": 6}, {"name": "Port Columbus International Airport", "city": "Columbus", "state": "Ohio", "country": "United States", "lat": 39.9974, "lon": -82.8877, "id": 159, "weight": 1.8096, "count": 28}, {"name": "Quincy Municipal Airport-Baldwin Field", "city": "Quincy", "state": "Illinois", "country": "United States", "lat": 39.9348, "lon": -91.196, "id": 160, "weight": 0.027000000000000003, "count": 2}, {"name": "James M Cox Dayton International Airport", "city": "Dayton", "state": "Ohio", "country": "United States", "lat": 39.8968, "lon": -84.2207, "id": 161, "weight": 1.3178, "count": 29}, {"name": "Philadelphia International Airport", "city": "Philadelphia", "state": "Pennsylvania", "country": "United States", "lat": 39.8768, "lon": -75.2419, "id": 162, "weight": 4.8725000000000005, "count": 62}, {"name": "Lansing Capital City Airport", "city": "Lansing", "state": "Michigan", "country": "United States", "lat": 42.7728, "lon": -84.5888, "id": 163, "weight": 0.0763, "count": 4}, {"name": "Decatur Airport", "city": "Decatur", "state": "Illinois", "country": "United States", "lat": 39.8335, "lon": -88.8773, "id": 164, "weight": 0.040100000000000004, "count": 3}, {"name": "Chico Municipal Airport", "city": "Chico", "state": "California", "country": "United States", "lat": 39.7987, "lon": -121.854, "id": 165, "weight": 0.021, "count": 1}, {"name": "Stapleton International", "city": "Stapleton", "state": "Colorado", "country": "United States", "lat": 39.760721999999994, "lon": -104.891972, "id": 166, "weight": 7.586599999999999, "count": 85}, {"name": "Indianapolis International Airport", "city": "Indianapolis", "state": "Indiana", "country": "United States", "lat": 39.7322, "lon": -86.2707, "id": 167, "weight": 2.8052000000000006, "count": 41}, {"name": "Eagle County Regional Airport", "city": "Gypsum", "state": "Colorado", "country": "United States", "lat": 39.6395, "lon": -106.912, "id": 168, "weight": 0.5328, "count": 7}, {"name": "Reno-Tahoe International Airport", "city": "Reno", "state": "Nevada", "country": "United States", "lat": 39.5064, "lon": -119.776, "id": 169, "weight": 0.9377999999999999, "count": 16}, {"name": "Atlantic City International Airport", "city": "Egg Harbor City", "state": "New Jersey", "country": "United States", "lat": 39.4512, "lon": -74.5716, "id": 170, "weight": 0.19890000000000002, "count": 6}, {"name": "Terre Haute International Hulman Field", "city": "Terre Haute", "state": "Indiana", "country": "United States", "lat": 39.45149994, "lon": -87.30760193, "id": 171, "weight": 0.0296, "count": 3}, {"name": "Kansas City International Airport", "city": "Kansas City", "state": "Missouri", "country": "United States", "lat": 39.2992, "lon": -94.7171, "id": 172, "weight": 2.674199999999999, "count": 35}, {"name": "Aspen Pitkin County Airport-Sardy Field", "city": "Aspen", "state": "Colorado", "country": "United States", "lat": 39.2197, "lon": -106.864, "id": 173, "weight": 0.2675, "count": 4}, {"name": "Baltimore-Washington International Thurgood Mars", "city": "Baltimore", "state": "Maryland", "country": "United States", "lat": 39.1841, "lon": -76.6745, "id": 174, "weight": 3.8736000000000006, "count": 53}, {"name": "Walker Field Airport", "city": "Grand Junction", "state": "Colorado", "country": "United States", "lat": 39.1217, "lon": -108.529, "id": 175, "weight": 0.0195, "count": 1}, {"name": "Greater Cincinnati International Airport", "city": "Hebron", "state": "Ohio", "country": "United States", "lat": 39.0571, "lon": -84.6625, "id": 176, "weight": 4.5428999999999995, "count": 61}, {"name": "Dulles International Airport", "city": "Washington", "state": "Virginia", "country": "United States", "lat": 38.9556, "lon": -77.4484, "id": 177, "weight": 3.6351000000000004, "count": 48}, {"name": "Lake Tahoe Airport", "city": "South Lake Tahoe", "state": "California", "country": "United States", "lat": 38.89390182, "lon": -119.9950027, "id": 178, "weight": 0.0171, "count": 1}, {"name": "Washington National Airport", "city": "Arlington", "state": "Virginia", "country": "United States", "lat": 38.849000000000004, "lon": -77.0438, "id": 179, "weight": 2.5239000000000003, "count": 42}, {"name": "Columbia Regional Airport", "city": "Columbia", "state": "Missouri", "country": "United States", "lat": 38.8174, "lon": -92.2218, "id": 180, "weight": 0.0095, "count": 1}, {"name": "City of Colorado Springs Municipal Airport", "city": "Colorado Springs", "state": "Colorado", "country": "United States", "lat": 38.7829, "lon": -104.697, "id": 181, "weight": 0.4111, "count": 8}, {"name": "Lambert St Louis International Airport", "city": "St. Louis", "state": "Missouri", "country": "United States", "lat": 38.7414, "lon": -90.3647, "id": 182, "weight": 6.610600000000001, "count": 94}, {"name": "Sacramento International Airport", "city": "Sacramento", "state": "California", "country": "United States", "lat": 38.695555999999996, "lon": -121.590833, "id": 183, "weight": 1.6178, "count": 23}, {"name": "Gunnison County Airport", "city": "Gunnison", "state": "Colorado", "country": "United States", "lat": 38.5356, "lon": -106.941, "id": 184, "weight": 0.31410000000000005, "count": 4}, {"name": "Sonoma County Airport", "city": "Windsor", "state": "California", "country": "United States", "lat": 38.510999999999996, "lon": -122.805, "id": 185, "weight": 0.0088, "count": 1}, {"name": "Yeager Airport", "city": "Charleston", "state": "West Virginia", "country": "United States", "lat": 38.3697, "lon": -81.5951, "id": 186, "weight": 0.1145, "count": 4}, {"name": "Tri State Walker Long Field Airport", "city": "Huntington", "state": "West Virginia", "country": "United States", "lat": 38.37, "lon": -82.5542, "id": 187, "weight": 0.0235, "count": 1}, {"name": "Pueblo Memorial Airport", "city": "Pueblo", "state": "Colorado", "country": "United States", "lat": 38.2836, "lon": -104.496, "id": 188, "weight": 0.005, "count": 1}, {"name": "Louisville International Airport", "city": "Louisville", "state": "Kentucky", "country": "United States", "lat": 38.1865, "lon": -85.7462, "id": 189, "weight": 0.668, "count": 18}, {"name": "Charlottesville Albemarle Airport", "city": "Earlysville", "state": "Virginia", "country": "United States", "lat": 38.14, "lon": -78.4487, "id": 190, "weight": 0.04820000000000001, "count": 3}, {"name": "Evansville Regional Airport", "city": "Evansville", "state": "Indiana", "country": "United States", "lat": 38.0464, "lon": -87.5308, "id": 191, "weight": 0.1391, "count": 5}, {"name": "Blue Grass Field", "city": "Lexington", "state": "Kentucky", "country": "United States", "lat": 38.0384, "lon": -84.5989, "id": 192, "weight": 0.24389999999999998, "count": 10}, {"name": "Stockton Metropolitan Airport", "city": "Stockton", "state": "California", "country": "United States", "lat": 37.8973, "lon": -121.253, "id": 193, "weight": 0.0063, "count": 1}, {"name": "Greenbrier Valley Airport", "city": "Lewisburg", "state": "West Virginia", "country": "United States", "lat": 37.8571, "lon": -80.4044, "id": 194, "weight": 0.0207, "count": 1}, {"name": "Williamson County Regional Airport", "city": "Marion", "state": "Illinois", "country": "United States", "lat": 37.7467, "lon": -89.0104, "id": 195, "weight": 0.017599999999999998, "count": 2}, {"name": "Waynesville Regional Airport At Forney Field", "city": "Fort Leonard Wood", "state": "Missouri", "country": "United States", "lat": 37.7327, "lon": -92.1361, "id": 196, "weight": 0.0133, "count": 1}, {"name": "Oakland International Airport", "city": "Oakland", "state": "California", "country": "United States", "lat": 37.7158, "lon": -122.209, "id": 197, "weight": 1.2609, "count": 20}, {"name": "Wichita Mid-Continent Airport", "city": "Wichita", "state": "Kansas", "country": "United States", "lat": 37.6531, "lon": -97.43, "id": 198, "weight": 0.6589, "count": 12}, {"name": "Modesto City County Airport-Harry Sham Field", "city": "Modesto", "state": "California", "country": "United States", "lat": 37.6319, "lon": -120.959, "id": 199, "weight": 0.0175, "count": 2}, {"name": "Mammoth June Lakes Airport", "city": "Mammoth Lakes", "state": "California", "country": "United States", "lat": 37.6288, "lon": -118.844, "id": 200, "weight": 0.0093, "count": 1}, {"name": "San Francisco International Airport", "city": "San Francisco", "state": "California", "country": "United States", "lat": 37.6148, "lon": -122.392, "id": 201, "weight": 7.5856999999999974, "count": 68}, {"name": "Richmond", "city": "Richmond", "state": "Virginia", "country": "United States", "lat": 37.5406, "lon": -77.4334, "id": 202, "weight": 0.6990999999999998, "count": 19}, {"name": "Norman Y Mineta San Jose International Airport", "city": "San Jose", "state": "California", "country": "United States", "lat": 37.3679, "lon": -121.926, "id": 203, "weight": 2.4648, "count": 26}, {"name": "Roanoke Regional Airport-Woodrum Field", "city": "Roanoke", "state": "Virginia", "country": "United States", "lat": 37.3203, "lon": -79.9688, "id": 204, "weight": 0.1751, "count": 7}, {"name": "Merced Municipal Airport-Macready Field", "city": "Merced", "state": "California", "country": "United States", "lat": 37.2892, "lon": -120.515, "id": 205, "weight": 0.016300000000000002, "count": 2}, {"name": "Springfield Regional Airport", "city": "Springfield", "state": "Missouri", "country": "United States", "lat": 37.243, "lon": -93.3817, "id": 206, "weight": 0.18159999999999998, "count": 6}, {"name": "Cape Girardeau Municipal Airport", "city": "Scott City", "state": "Missouri", "country": "United States", "lat": 37.2272, "lon": -89.5637, "id": 207, "weight": 0.020900000000000002, "count": 2}, {"name": "Durango la Plata County Airport", "city": "Durango", "state": "Colorado", "country": "United States", "lat": 37.1595, "lon": -107.751, "id": 208, "weight": 0.0416, "count": 1}, {"name": "Joplin Regional Airport", "city": "Webb City", "state": "Missouri", "country": "United States", "lat": 37.147, "lon": -94.5019, "id": 209, "weight": 0.0319, "count": 2}, {"name": "Newport News-Williamsburg International Airport", "city": "Newport News", "state": "Virginia", "country": "United States", "lat": 37.1306, "lon": -76.5026, "id": 210, "weight": 0.0373, "count": 1}, {"name": "Barkley Regional Airport", "city": "West Paducah", "state": "Kentucky", "country": "United States", "lat": 37.0612, "lon": -88.7672, "id": 211, "weight": 0.0181, "count": 1}, {"name": "Norfolk International Airport", "city": "Norfolk", "state": "Virginia", "country": "United States", "lat": 36.8977, "lon": -76.2154, "id": 212, "weight": 0.8705999999999998, "count": 19}, {"name": "Amedee Army Air Field", "city": "Herlong", "state": "California", "country": "United States", "lat": 40.2664, "lon": -120.151, "id": 213, "weight": 0.5145, "count": 15}, {"name": "Monterey Peninsula Airport", "city": "Monterey", "state": "California", "country": "United States", "lat": 36.5872, "lon": -121.851, "id": 214, "weight": 0.0411, "count": 2}, {"name": "Tri-Cities Regional Airport", "city": "Blountville", "state": "Tennessee", "country": "United States", "lat": 36.4805, "lon": -82.4087, "id": 215, "weight": 0.083, "count": 3}, {"name": "Tulsa International Airport", "city": "Tulsa", "state": "Oklahoma", "country": "United States", "lat": 36.1877, "lon": -95.8892, "id": 216, "weight": 0.8158, "count": 16}, {"name": "Nashville International Airport", "city": "Nashville", "state": "Tennessee", "country": "United States", "lat": 36.1342, "lon": -86.6682, "id": 217, "weight": 3.8438000000000017, "count": 56}, {"name": "Triad International Airport", "city": "Greensboro", "state": "North Carolina", "country": "United States", "lat": 36.1038, "lon": -79.9427, "id": 218, "weight": 0.6869000000000002, "count": 18}, {"name": "Mccarran International Airport", "city": "Las Vegas", "state": "Nevada", "country": "United States", "lat": 36.0806, "lon": -115.143, "id": 219, "weight": 5.5783000000000005, "count": 49}, {"name": "Drake Field", "city": "Fayetteville", "state": "Arizona", "country": "United States", "lat": 36.00510025, "lon": -94.17009735, "id": 220, "weight": 0.0722, "count": 3}, {"name": "Durham International Airport", "city": "Raleigh/Durham", "state": "North Carolina", "country": "United States", "lat": 35.8729, "lon": -78.7923, "id": 221, "weight": 3.0353, "count": 50}, {"name": "Mcghee Tyson Airport", "city": "Knoxville", "state": "Tennessee", "country": "United States", "lat": 35.8064, "lon": -83.9889, "id": 222, "weight": 0.361, "count": 10}, {"name": "Asheville Regional Airport", "city": "Fletcher", "state": "North Carolina", "country": "United States", "lat": 35.4349, "lon": -82.5373, "id": 223, "weight": 0.027999999999999997, "count": 2}, {"name": "Kern County-Meadows Field Airport", "city": "Bakersfield", "state": "California", "country": "United States", "lat": 35.4288, "lon": -119.044, "id": 224, "weight": 0.1858, "count": 4}, {"name": "Will Rogers World Airport", "city": "Oklahoma City", "state": "Oklahoma", "country": "United States", "lat": 35.3981, "lon": -97.5974, "id": 225, "weight": 0.7738999999999999, "count": 14}, {"name": "Smith Field Airport", "city": "Fort Smith", "state": "Arkansas", "country": "United States", "lat": 36.1881, "lon": -94.4944, "id": 226, "weight": 0.072, "count": 3}, {"name": "Kinston Jetport Stallings Airport", "city": "Kinston", "state": "North Carolina", "country": "United States", "lat": 35.3243, "lon": -77.6115, "id": 227, "weight": 0.017, "count": 1}, {"name": "San Luis Obispo County Airport", "city": "San Luis Obispo", "state": "California", "country": "United States", "lat": 35.239000000000004, "lon": -120.641, "id": 228, "weight": 0.027700000000000002, "count": 2}, {"name": "Amarillo International Airport", "city": "Amarillo", "state": "Texas", "country": "United States", "lat": 35.2177, "lon": -101.706, "id": 229, "weight": 0.34640000000000004, "count": 7}, {"name": "Douglas International Airport", "city": "Charlotte", "state": "North Carolina", "country": "United States", "lat": 35.2226, "lon": -80.946, "id": 230, "weight": 5.530200000000001, "count": 87}, {"name": "Flagstaff Pulliam Airport", "city": "Flagstaff", "state": "Arizona", "country": "United States", "lat": 35.139, "lon": -111.675, "id": 231, "weight": 0.0164, "count": 1}, {"name": "Memphis International Airport", "city": "Memphis", "state": "Tennessee", "country": "United States", "lat": 35.047, "lon": -89.9823, "id": 232, "weight": 3.1001999999999996, "count": 44}, {"name": "Albuquerque International Airport", "city": "Albuquerque", "state": "New Mexico", "country": "United States", "lat": 35.0494, "lon": -106.625, "id": 233, "weight": 1.5728999999999997, "count": 23}, {"name": "Chattanooga Metropolitan Airport", "city": "Chattanooga", "state": "Tennessee", "country": "United States", "lat": 35.0373, "lon": -85.1966, "id": 234, "weight": 0.0356, "count": 2}, {"name": "Fayetteville Regional Airport", "city": "Fayetteville", "state": "North Carolina", "country": "United States", "lat": 34.9914, "lon": -78.8889, "id": 235, "weight": 0.022600000000000002, "count": 2}, {"name": "Santa Maria Public Airport", "city": "Santa Maria", "state": "California", "country": "United States", "lat": 34.8888, "lon": -120.437, "id": 236, "weight": 0.0311, "count": 2}, {"name": "Greenville Spartanburg International Airport", "city": "Greer", "state": "South Carolina", "country": "United States", "lat": 34.8907, "lon": -82.2167, "id": 237, "weight": 0.173, "count": 5}, {"name": "Albert J Ellis Airport", "city": "Richlands", "state": "North Carolina", "country": "United States", "lat": 34.8307, "lon": -77.6053, "id": 238, "weight": 0.0174, "count": 1}, {"name": "Adams Field Airport", "city": "Little Rock", "state": "Arkansas", "country": "United States", "lat": 34.7278, "lon": -92.219, "id": 239, "weight": 0.34559999999999996, "count": 10}, {"name": "Huntsville International Airport", "city": "Huntsville", "state": "Alabama", "country": "United States", "lat": 34.6492, "lon": -86.7767, "id": 240, "weight": 0.27460000000000007, "count": 8}, {"name": "Lawton Municipal Airport", "city": "Lawton", "state": "Oklahoma", "country": "United States", "lat": 34.573, "lon": -98.4135, "id": 241, "weight": 0.0175, "count": 1}, {"name": "Santa Barbara Municipal Airport", "city": "Goleta", "state": "California", "country": "United States", "lat": 34.4255, "lon": -119.835, "id": 242, "weight": 0.2791, "count": 7}, {"name": "Wilmington International Airport", "city": "Wilmington", "state": "North Carolina", "country": "United States", "lat": 34.2668, "lon": -77.912, "id": 243, "weight": 0.089, "count": 3}, {"name": "Oxnard Airport", "city": "Oxnard", "state": "California", "country": "United States", "lat": 34.1984, "lon": -119.206, "id": 244, "weight": 0.0048, "count": 1}, {"name": "Burbank Glendale Pasadena Airport", "city": "Burbank", "state": "California", "country": "United States", "lat": 34.1963, "lon": -118.352, "id": 245, "weight": 0.7829, "count": 17}, {"name": "Ontario International Airport", "city": "Ontario", "state": "California", "country": "United States", "lat": 34.062, "lon": -117.594, "id": 246, "weight": 1.8392999999999997, "count": 23}, {"name": "Sheppard Air Force Base", "city": "Wichita Falls", "state": "Texas", "country": "United States", "lat": 33.9862, "lon": -98.4984, "id": 247, "weight": 0.0128, "count": 1}, {"name": "Los Angeles International Airport", "city": "Los Angeles", "state": "California", "country": "United States", "lat": 33.9456, "lon": -118.391, "id": 248, "weight": 7.9807, "count": 59}, {"name": "Columbia Metropolitan Airport", "city": "West Columbia", "state": "South Carolina", "country": "United States", "lat": 33.9468, "lon": -81.1241, "id": 249, "weight": 0.31289999999999996, "count": 9}, {"name": "Palm Springs International Airport", "city": "Palm Springs", "state": "California", "country": "United States", "lat": 33.8227, "lon": -116.509, "id": 250, "weight": 0.8015, "count": 14}, {"name": "Long Beach Daugherty Field Airport", "city": "Long Beach", "state": "California", "country": "United States", "lat": 33.8186, "lon": -118.144, "id": 251, "weight": 0.362, "count": 7}, {"name": "Myrtle Beach International Airport", "city": "Myrtle Beach", "state": "South Carolina", "country": "United States", "lat": 33.6821, "lon": -78.9228, "id": 252, "weight": 0.1664, "count": 4}, {"name": "John Wayne Airport", "city": "Arthurville", "state": "Santa Ana", "country": "United States", "lat": 33.675556, "lon": -117.868333, "id": 253, "weight": 1.7796, "count": 22}, {"name": "Lubbock International Airport", "city": "Lubbock", "state": "Texas", "country": "United States", "lat": 33.6566, "lon": -101.821, "id": 254, "weight": 0.1621, "count": 6}, {"name": "Hartsfield-Jackson Atlanta International Airport", "city": "Atlanta", "state": "Georgia", "country": "United States", "lat": 33.6558, "lon": -84.4333, "id": 255, "weight": 7.832600000000002, "count": 101}, {"name": "Birmingham International Airport", "city": "Birmingham", "state": "Alabama", "country": "United States", "lat": 33.563889, "lon": -86.752222, "id": 256, "weight": 0.6830999999999999, "count": 17}, {"name": "Texarkana Regional Airport", "city": "Texarkana", "state": "Arkansas", "country": "United States", "lat": 33.457, "lon": -93.9943, "id": 257, "weight": 0.0164, "count": 1}, {"name": "Sky Harbor International Airport", "city": "Phoenix", "state": "Arizona", "country": "United States", "lat": 33.4376, "lon": -112.03, "id": 258, "weight": 6.2408, "count": 60}, {"name": "Bush Field Airport", "city": "Augusta", "state": "Georgia", "country": "United States", "lat": 33.3735, "lon": -81.9732, "id": 259, "weight": 0.050699999999999995, "count": 4}, {"name": "Charleston International Airport", "city": "North Charleston", "state": "South Carolina", "country": "United States", "lat": 32.8838, "lon": -80.0356, "id": 260, "weight": 0.49570000000000003, "count": 11}, {"name": "Fort Worth International Airport", "city": "Dallas", "state": "Texas", "country": "United States", "lat": 32.9222, "lon": -97.0409, "id": 261, "weight": 9.591699999999994, "count": 118}, {"name": "Dallas Love Field Airport", "city": "Dallas", "state": "Texas", "country": "United States", "lat": 32.8439, "lon": -96.8496, "id": 262, "weight": 0.4396, "count": 13}, {"name": "San Diego International Airport", "city": "San Diego", "state": "California", "country": "United States", "lat": 32.7299, "lon": -117.195, "id": 263, "weight": 3.9826000000000006, "count": 36}, {"name": "Yuma International Airport", "city": "Yuma", "state": "Arizona", "country": "United States", "lat": 32.6685, "lon": -114.599, "id": 264, "weight": 0.0151, "count": 1}, {"name": "Columbus Metropolitan Airport", "city": "Columbus", "state": "Georgia", "country": "United States", "lat": 32.5184, "lon": -84.9401, "id": 265, "weight": 0.0111, "count": 1}, {"name": "Monroe Regional Airport", "city": "Monroe", "state": "Louisiana", "country": "United States", "lat": 32.5099, "lon": -92.044, "id": 266, "weight": 0.1718, "count": 7}, {"name": "Shreveport Regional Airport", "city": "Shreveport", "state": "Louisiana", "country": "United States", "lat": 32.4549, "lon": -93.8285, "id": 267, "weight": 0.18789999999999998, "count": 7}, {"name": "Abilene Regional Airport", "city": "Abilene", "state": "Texas", "country": "United States", "lat": 32.4164, "lon": -99.6803, "id": 268, "weight": 0.0143, "count": 1}, {"name": "Gregg County Airport", "city": "Longview", "state": "Texas", "country": "United States", "lat": 32.3874, "lon": -94.7194, "id": 269, "weight": 0.0162, "count": 2}, {"name": "Tyler Pounds Field Airport", "city": "Tyler", "state": "Texas", "country": "United States", "lat": 32.3506, "lon": -95.4118, "id": 270, "weight": 0.0132, "count": 2}, {"name": "Jackson International Airport", "city": "Pearl", "state": "Mississippi", "country": "United States", "lat": 32.3089, "lon": -90.0733, "id": 271, "weight": 0.26359999999999995, "count": 9}, {"name": "Montgomery Regional Airport", "city": "Montgomery", "state": "Alabama", "country": "United States", "lat": 32.3049, "lon": -86.3909, "id": 272, "weight": 0.1262, "count": 5}, {"name": "Savannah International Airport", "city": "Savannah", "state": "Georgia", "country": "United States", "lat": 32.1338, "lon": -81.2133, "id": 273, "weight": 1.1774, "count": 17}, {"name": "Tucson International Airport", "city": "Tucson", "state": "Arizona", "country": "United States", "lat": 32.1204, "lon": -110.936, "id": 274, "weight": 0.9630999999999998, "count": 13}, {"name": "Midland International Airport", "city": "Midland", "state": "Texas", "country": "United States", "lat": 31.9361, "lon": -102.208, "id": 275, "weight": 0.18419999999999997, "count": 6}, {"name": "El Paso International Airport", "city": "El Paso", "state": "Texas", "country": "United States", "lat": 31.7982, "lon": -106.393, "id": 276, "weight": 1.0279999999999998, "count": 17}, {"name": "Waco Regional Airport", "city": "Waco", "state": "Texas", "country": "United States", "lat": 31.609, "lon": -97.2234, "id": 277, "weight": 0.0122, "count": 1}, {"name": "Esler Regional Airport", "city": "Alexandria", "state": "Louisiana", "country": "United States", "lat": 31.39489937, "lon": -92.29579926, "id": 278, "weight": 0.028, "count": 1}, {"name": "Mathis Field Airport", "city": "San Angelo", "state": "Texas", "country": "United States", "lat": 31.3616, "lon": -100.507, "id": 279, "weight": 0.0229, "count": 1}, {"name": "Killeen-Fort Hood Regional Airport", "city": "Killeen", "state": "Texas", "country": "United States", "lat": 31.0615, "lon": -97.8206, "id": 280, "weight": 0.0176, "count": 1}, {"name": "Mobile Regional Airport", "city": "Mobile", "state": "Alabama", "country": "United States", "lat": 30.6775, "lon": -88.243, "id": 281, "weight": 0.3277, "count": 10}, {"name": "Easterwood Field Airport", "city": "College Station", "state": "Texas", "country": "United States", "lat": 30.5938, "lon": -96.3685, "id": 282, "weight": 0.0223, "count": 1}, {"name": "Baton Rouge Metropolitan Airport", "city": "Baton Rouge", "state": "Louisiana", "country": "United States", "lat": 30.533, "lon": -91.1567, "id": 283, "weight": 0.2912, "count": 9}, {"name": "Jacksonville International Airport", "city": "Jacksonville", "state": "Florida", "country": "United States", "lat": 30.4914, "lon": -81.676, "id": 284, "weight": 1.3264999999999998, "count": 22}, {"name": "Eglin Air Force Base", "city": "Eglin Village", "state": "Florida", "country": "United States", "lat": 30.496, "lon": -86.55, "id": 285, "weight": 0.047, "count": 1}, {"name": "Pensacola Regional Airport", "city": "Pensacola", "state": "Florida", "country": "United States", "lat": 30.4761, "lon": -87.1941, "id": 286, "weight": 0.37470000000000003, "count": 10}, {"name": "Tallahassee Regional Airport", "city": "Tallahassee", "state": "Florida", "country": "United States", "lat": 30.3964, "lon": -84.3503, "id": 287, "weight": 0.1781, "count": 5}, {"name": "Robert Mueller Municipal Airport", "city": "Austin", "state": "Texas", "country": "United States", "lat": 30.3, "lon": -97.7, "id": 288, "weight": 1.1859, "count": 18}, {"name": "Panama City Bay County Airport", "city": "Panama City", "state": "Florida", "country": "United States", "lat": 30.2071, "lon": -85.6829, "id": 289, "weight": 0.0334, "count": 1}, {"name": "Lafayette Regional Airport", "city": "Lafayette", "state": "Louisiana", "country": "United States", "lat": 30.2084, "lon": -91.9935, "id": 290, "weight": 0.0535, "count": 2}, {"name": "Lake Charles Regional Airport", "city": "Lake Charles", "state": "Louisiana", "country": "United States", "lat": 30.1235, "lon": -93.2198, "id": 291, "weight": 0.0328, "count": 1}, {"name": "New Orleans International Airport", "city": "Kenner", "state": "Louisiana", "country": "United States", "lat": 29.983, "lon": -90.2569, "id": 292, "weight": 2.9864999999999995, "count": 33}, {"name": "George Bush Intercontinental Airport", "city": "Houston", "state": "Texas", "country": "United States", "lat": 29.9784, "lon": -95.3424, "id": 293, "weight": 5.8229000000000015, "count": 62}, {"name": "Jefferson County Airport", "city": "Beaumont", "state": "Texas", "country": "United States", "lat": 29.9551, "lon": -94.0185, "id": 294, "weight": 0.032, "count": 1}, {"name": "Gainesville Regional Airport", "city": "Gainesville", "state": "Florida", "country": "United States", "lat": 29.6861, "lon": -82.277, "id": 295, "weight": 0.09259999999999999, "count": 2}, {"name": "William P Hobby Airport", "city": "Houston", "state": "Texas", "country": "United States", "lat": 29.6572, "lon": -95.2795, "id": 296, "weight": 1.8948000000000003, "count": 27}, {"name": "San Antonio International Airport", "city": "San Antonio", "state": "Texas", "country": "United States", "lat": 29.5252, "lon": -98.4729, "id": 297, "weight": 1.3499999999999999, "count": 19}, {"name": "Daytona Beach International Airport", "city": "Daytona Beach", "state": "Florida", "country": "United States", "lat": 29.1874, "lon": -81.0615, "id": 298, "weight": 0.3149, "count": 7}, {"name": "Orlando International Airport", "city": "Orlando", "state": "Florida", "country": "United States", "lat": 28.4418, "lon": -81.3115, "id": 299, "weight": 5.659200000000001, "count": 56}, {"name": "Melbourne International Airport", "city": "Melbourne", "state": "Florida", "country": "United States", "lat": 28.0957, "lon": -80.6282, "id": 300, "weight": 0.38370000000000004, "count": 8}, {"name": "Tampa International Airport", "city": "Tampa", "state": "Florida", "country": "United States", "lat": 27.9744, "lon": -82.5356, "id": 301, "weight": 4.0366, "count": 42}, {"name": "St. Petersburg-Clearwater International Airport", "city": "Clearwater", "state": "Florida", "country": "United States", "lat": 27.9065, "lon": -82.6924, "id": 302, "weight": 0.2712, "count": 3}, {"name": "Corpus Christi International Airport", "city": "Corpus Christi", "state": "Texas", "country": "United States", "lat": 27.7747, "lon": -97.5019, "id": 303, "weight": 0.094, "count": 3}, {"name": "Laredo International Airport", "city": "Laredo", "state": "Texas", "country": "United States", "lat": 27.5431, "lon": -99.4555, "id": 304, "weight": 0.0526, "count": 1}, {"name": "Sarasota Bradenton Airport", "city": "Sarasota", "state": "Florida", "country": "United States", "lat": 27.3868, "lon": -82.5516, "id": 305, "weight": 1.7057, "count": 19}, {"name": "Palm Beach International Airport", "city": "West Palm Beach", "state": "Florida", "country": "United States", "lat": 26.6909, "lon": -80.0889, "id": 306, "weight": 2.6664000000000008, "count": 27}, {"name": "Southwest Florida International Airport", "city": "Fort Myers", "state": "Florida", "country": "United States", "lat": 26.5228, "lon": -81.7531, "id": 307, "weight": 2.7918000000000003, "count": 29}, {"name": "Grande Valley International Airport", "city": "Harlingen", "state": "Texas", "country": "United States", "lat": 26.2216, "lon": -97.663, "id": 308, "weight": 0.20729999999999998, "count": 5}, {"name": "Miller International Airport", "city": "Mcallen", "state": "Texas", "country": "United States", "lat": 26.1813, "lon": -98.2404, "id": 309, "weight": 0.1038, "count": 2}, {"name": "Fort Lauderdale Hollywood International Airport", "city": "Dania Beach", "state": "Florida", "country": "United States", "lat": 26.0722, "lon": -80.1354, "id": 310, "weight": 3.7043999999999997, "count": 34}, {"name": "Miami International Airport", "city": "Miami", "state": "Florida", "country": "United States", "lat": 25.7953, "lon": -80.2727, "id": 311, "weight": 5.6827000000000005, "count": 47}, {"name": "Lihue Airport", "city": "Lihue", "state": "Hawaii", "country": "United States", "lat": 21.9782, "lon": -159.351, "id": 312, "weight": 0.0548, "count": 3}, {"name": "Honolulu International Airport", "city": "Honolulu", "state": "Hawaii", "country": "United States", "lat": 21.3358, "lon": -157.919, "id": 313, "weight": 5.189500000000001, "count": 24}, {"name": "Molokai Airport", "city": "Hoolehua", "state": "Hawaii", "country": "United States", "lat": 21.1557, "lon": -157.094, "id": 314, "weight": 0.012299999999999998, "count": 3}, {"name": "Kapalua West Maui Airport", "city": "Lahaina", "state": "Hawaii", "country": "United States", "lat": 20.9619, "lon": -156.676, "id": 315, "weight": 0.010700000000000001, "count": 3}, {"name": "Kahului Airport", "city": "Kahului", "state": "Hawaii", "country": "United States", "lat": 20.8926, "lon": -156.441, "id": 316, "weight": 0.8331, "count": 10}, {"name": "Lanai Airport", "city": "Lanai City", "state": "Hawaii", "country": "United States", "lat": 20.7909, "lon": -156.951, "id": 317, "weight": 0.015700000000000002, "count": 4}, {"name": "Kailua-Kona International Airport", "city": "Kailua Kona", "state": "Hawaii", "country": "United States", "lat": 19.7334, "lon": -156.039, "id": 318, "weight": 0.5385, "count": 6}, {"name": "Hilo International Airport", "city": "Hilo", "state": "Hawaii", "country": "United States", "lat": 19.7126, "lon": -155.042, "id": 319, "weight": 0.0396, "count": 3}, {"name": "Rafael Hernandez Airport", "city": "Aguadilla", "state": "Puerto Rico", "country": "United States", "lat": 18.496, "lon": -67.1357, "id": 320, "weight": 0.5316, "count": 4}, {"name": "Luis Munoz Marin Airport", "city": "Carolina", "state": "Puerto Rico", "country": "United States", "lat": 18.4367, "lon": -66.0095, "id": 321, "weight": 3.303, "count": 21}, {"name": "Cyril E King International Airport", "city": "Charlotte Amalie", "state": "US Virgin Islands", "country": "United States", "lat": 18.3333, "lon": -64.9667, "id": 322, "weight": 1.1952, "count": 9}, {"name": "Eugenio Maria de Hostos Airport", "city": "Mayaguez", "state": "Puerto Rico", "country": "United States", "lat": 18.2531, "lon": -67.1489, "id": 323, "weight": 0.0061, "count": 1}, {"name": "Mercedita Airport", "city": "Coto Laurel", "state": "Puerto Rico", "country": "United States", "lat": 18.0116, "lon": -66.5664, "id": 324, "weight": 0.5519, "count": 5}, {"name": "Henry E Rohlson International Airport", "city": "Frederiksted", "state": "US Virgin Islands", "country": "United States", "lat": 17.6988, "lon": -64.7977, "id": 325, "weight": 1.056, "count": 8}, {"name": "Johnston Atoll Airport", "city": "Johnston Island", "state": "Hawaii", "country": "United States", "lat": 16.72859955, "lon": -169.5339966, "id": 326, "weight": 0.0736, "count": 1}, {"name": "Saipan International Airport", "city": "Saipan", "state": "Northern Mariana Islands", "country": "United States", "lat": 15.1333, "lon": 145.717, "id": 327, "weight": 0.12040000000000001, "count": 4}, {"name": "Rota International Airport", "city": "Rota", "state": "Northern Mariana Islands", "country": "United States", "lat": 14.1667, "lon": 145.25, "id": 328, "weight": 0.0163, "count": 2}, {"name": "Antonio B Won Pat International Airport", "city": "Hag\u221a\u2022t\u221a\u00b1a", "state": "Guam", "country": "United States", "lat": 13.4833, "lon": 144.796, "id": 329, "weight": 0.40279999999999994, "count": 4}, {"name": "Koror Airport", "city": "Koror", "state": "Koror", "country": "Palau", "lat": 7.35743, "lon": 134.547, "id": 330, "weight": 0.1719, "count": 2}, {"name": "Pago Pago International Airport", "city": "Pago Pago", "state": "American Samoa", "country": "United States", "lat": -14.3242, "lon": -170.706, "id": 331, "weight": 0.8794, "count": 2}, {"name": "Tinian", "city": "Tinian", "state": "Veneto", "country": "Northern Mariana Islands", "lat": 45.0039, "lon": 12.2686, "id": 332, "weight": 0.0013, "count": 1}]