{"nodes": [{"old_name": "Wiley Post-Will Rogers Mem", "x": 0.4407, "y": 0.091, "name": "Wiley Post Will Rogers Memorial Airport", "city": "Barrow", "state": "Alaska", "country": "United States", "lat": 71.2892, "lon": -156.772}, {"old_name": "Deadhorse", "x": 0.483, "y": 0.1014, "name": "Deadhorse Airport", "city": "Prudhoe Bay", "state": "Alaska", "country": "United States", "lat": 70.1975, "lon": -148.458}, {"old_name": "Ralph Wien Memorial", "x": 0.41100000000000003, "y": 0.133, "name": "Ralph Wien Memorial Airport", "city": "Kotzebue", "state": "Alaska", "country": "United States", "lat": 66.8893, "lon": -162.61}, {"old_name": "Fairbanks International", "x": 0.4861, "y": 0.1528, "name": "Fairbanks International Airport", "city": "Fairbanks", "state": "Alaska", "country": "United States", "lat": 64.8183, "lon": -147.866}, {"old_name": "Nome", "x": 0.3965, "y": 0.1557, "name": "Nome Airport", "city": "Nome", "state": "Alaska", "country": "United States", "lat": 64.5125, "lon": -165.445}, {"old_name": "St Mary\\'s", "x": 0.4074, "y": 0.1791, "name": "Alaska", "city": "Saint Marys", "state": "Alaska", "country": "United States", "lat": 62.0503, "lon": -163.179}, {"old_name": "Aniak", "x": 0.4266, "y": 0.1837, "name": "Aniak Airport", "city": "Bethel", "state": "Alaska", "country": "United States", "lat": 61.5742, "lon": -159.535}, {"old_name": "Anchorage International", "x": 0.4752, "y": 0.1876, "name": "Anchorage International Airport", "city": "Anchorage", "state": "Alaska", "country": "United States", "lat": 61.1767, "lon": -149.961}, {"old_name": "Tuluksak", "x": 0.4193, "y": 0.1883, "name": "Tuluksak", "city": "Tuluksak", "state": "Alaska", "country": "United States", "lat": 61.0959, "lon": -160.968}, {"old_name": "Akiachak", "x": 0.4169, "y": 0.1901, "name": "Akiachak", "city": "Akiachak", "state": "Alaska", "country": "United States", "lat": 60.9057, "lon": -161.424}, {"old_name": "Akiak", "x": 0.418, "y": 0.1901, "name": "Akiak Airport", "city": "Bethel", "state": "Alaska", "country": "United States", "lat": 60.8866, "lon": -161.218}, {"old_name": "Kwethluk", "x": 0.4169, "y": 0.1911, "name": "Kwethluk Airport", "city": "Kwethluk", "state": "Alaska", "country": "United States", "lat": 60.8, "lon": -161.45}, {"old_name": "Bethel", "x": 0.4149, "y": 0.1913, "name": "Bethel Airport", "city": "Bethel", "state": "Alaska", "country": "United States", "lat": 60.7788, "lon": -161.847}, {"old_name": "Napaskiak", "x": 0.4152, "y": 0.1921, "name": "Alaska", "city": "Napaskiak", "state": "Alaska", "country": "United States", "lat": 60.7049, "lon": -161.766}, {"old_name": "Napakiak", "x": 0.4142, "y": 0.1922, "name": "Napaskiak", "city": "Napakiak", "state": "Alaska", "country": "United States", "lat": 60.7049, "lon": -161.766}, {"old_name": "Merle K (Mudhole) Smith", "x": 0.4982, "y": 0.1941, "name": "Merle K Mudhole Smith Airport", "city": "Cordova", "state": "Alaska", "country": "United States", "lat": 60.4924, "lon": -145.475}, {"old_name": "Tuntutuliak", "x": 0.4107, "y": 0.1956, "name": "Tuntutuliak", "city": "Tuntutuliak", "state": "Alaska", "country": "United States", "lat": 60.3432, "lon": -162.664}, {"old_name": "Eek", "x": 0.414, "y": 0.1967, "name": "Eek Airport", "city": "Eek", "state": "Alaska", "country": "United States", "lat": 60.2167, "lon": -162.017}, {"old_name": "Kongiganak", "x": 0.4096, "y": 0.1992, "name": "Alaska", "city": "Kongiganak", "state": "Alaska", "country": "United States", "lat": 62.8903, "lon": -149.054}, {"old_name": "Kwigillingok", "x": 0.4082, "y": 0.2003, "name": "Kwigillingok", "city": "Kwigillingok", "state": "Alaska", "country": "United States", "lat": 59.9077, "lon": -163.026}, {"old_name": "Quinhagak", "x": 0.4147, "y": 0.2011, "name": "Quinhagak", "city": "Quinhagak", "state": "Alaska", "country": "United States", "lat": 59.7511, "lon": -161.908}, {"old_name": "Yakutat", "x": 0.5278, "y": 0.2035, "name": "Yakutat Airport", "city": "Yakutat", "state": "Alaska", "country": "United States", "lat": 59.5103, "lon": -139.668}, {"old_name": "Dillingham", "x": 0.4319, "y": 0.2079, "name": "Dillingham Municipal Airport", "city": "Dillingham", "state": "Alaska", "country": "United States", "lat": 59.0445, "lon": -158.513}, {"old_name": "King Salmon", "x": 0.4413, "y": 0.2114, "name": "King Salmon Airport", "city": "King Salmon", "state": "Alaska", "country": "United States", "lat": 58.6775, "lon": -156.655}, {"old_name": "Gustavus", "x": 0.5479999999999999, "y": 0.2138, "name": "Gustavus Airport", "city": "Gustavus", "state": "Alaska", "country": "United States", "lat": 58.4246, "lon": -135.707}, {"old_name": "Juneau International", "x": 0.5537, "y": 0.2145, "name": "Juneau International Airport", "city": "Juneau", "state": "Alaska", "country": "United States", "lat": 58.3598, "lon": -134.583}, {"old_name": "Kodiak", "x": 0.4625, "y": 0.2203, "name": "Kodiak Airport", "city": "Kodiak", "state": "Alaska", "country": "United States", "lat": 57.7545, "lon": -152.512}, {"old_name": "St Paul Island", "x": 0.3722, "y": 0.2259, "name": "Saint Paul Island", "city": "Saint Paul Island", "state": "Alaska", "country": "United States", "lat": 57.1667, "lon": -170.217}, {"old_name": "Sitka", "x": 0.5497, "y": 0.22699999999999998, "name": "Sitka Airport", "city": "Sitka", "state": "Alaska", "country": "United States", "lat": 57.0535, "lon": -135.366}, {"old_name": "Port Heiden", "x": 0.4312, "y": 0.2278, "name": "Port Heiden Airport", "city": "Port Heiden", "state": "Alaska", "country": "United States", "lat": 56.9667, "lon": -158.633}, {"old_name": "James A Johnson Petersburg", "x": 0.562, "y": 0.2293, "name": "Petersburg James A Johnson Airport", "city": "Petersburg", "state": "Alaska", "country": "United States", "lat": 56.8067, "lon": -132.933}, {"old_name": "Wrangell", "x": 0.565, "y": 0.2324, "name": "Wrangell Airport", "city": "Wrangell", "state": "Alaska", "country": "United States", "lat": 56.4876, "lon": -132.378}, {"old_name": "Ketchikan International", "x": 0.5683, "y": 0.2432, "name": "Ketchikan International Airport", "city": "Ketchikan", "state": "Alaska", "country": "United States", "lat": 55.354, "lon": -131.706}, {"old_name": "Sand Point", "x": 0.4216, "y": 0.2435, "name": "Sand Point Airport", "city": "Sand Point", "state": "Alaska", "country": "United States", "lat": 55.3184, "lon": -160.523}, {"old_name": "Cold Bay", "x": 0.4104, "y": 0.2446, "name": "Cold Bay Airport", "city": "Cold Bay", "state": "Alaska", "country": "United States", "lat": 55.2005, "lon": -162.705}, {"old_name": "Unalaska", "x": 0.3909, "y": 0.2571, "name": "Unalaska Airport", "city": "Unalaska", "state": "Alaska", "country": "United States", "lat": 53.896, "lon": -166.535}, {"old_name": "Eareckson As", "x": 0.2924, "y": 0.2684, "name": "Eareckson As", "city": "Shemya", "state": "Alaska", "country": "United States", "lat": 52.712222, "lon": 174.113611}, {"old_name": "Adak Naf", "x": 0.3395, "y": 0.2764, "name": "Adak Naf", "city": "Adak", "state": "Alaska", "country": "United States", "lat": 51.878056, "lon": -176.646111}, {"old_name": "Bellingham International", "x": 0.615, "y": 0.3059, "name": "Bellingham International Airport", "city": "Bellingham", "state": "Washington", "country": "United States", "lat": 48.7955, "lon": -122.532}, {"old_name": "Glacier Park International", "x": 0.6572, "y": 0.3105, "name": "Glacier Park International Airport", "city": "Kalispell", "state": "Montana", "country": "United States", "lat": 48.3075, "lon": -114.252}, {"old_name": "Minot International", "x": 0.7233, "y": 0.311, "name": "Minot International Airport", "city": "Minot", "state": "North Dakota", "country": "United States", "lat": 48.2554, "lon": -101.291}, {"old_name": "William R Fairchild International", "x": 0.6101, "y": 0.3123, "name": "William R Fairchild International Airport", "city": "Port Angeles", "state": "Washington", "country": "United States", "lat": 48.1155, "lon": -123.491}, {"old_name": "Grand Forks Afb", "x": 0.743, "y": 0.3138, "name": "Grand Forks Afb", "city": "Grand Forks", "state": "North Dakota", "country": "United States", "lat": 47.961110999999995, "lon": -97.401111}, {"old_name": "Grand Forks International", "x": 0.7442, "y": 0.3139, "name": "Grand Forks Mark Andrews International Airport", "city": "Grand Forks", "state": "North Dakota", "country": "United States", "lat": 47.9494, "lon": -97.1762}, {"old_name": "Spokane International", "x": 0.6405, "y": 0.3171, "name": "Spokane International Airport", "city": "Spokane", "state": "Washington", "country": "United States", "lat": 47.625, "lon": -117.538}, {"old_name": "Great Falls International", "x": 0.6719, "y": 0.3184, "name": "Great Falls International Airport", "city": "Great Falls", "state": "Montana", "country": "United States", "lat": 47.482, "lon": -111.356}, {"old_name": "Seattle-Tacoma International", "x": 0.6162, "y": 0.3188, "name": "Tacoma International Airport", "city": "Seattle", "state": "Washington", "country": "United States", "lat": 47.4405, "lon": -122.296}, {"old_name": "Pangborn Memorial", "x": 0.6269, "y": 0.3192, "name": "Pangborn Memorial Airport", "city": "East Wenatchee", "state": "Washington", "country": "United States", "lat": 47.4048, "lon": -120.21}, {"old_name": "Grant County", "x": 0.6314, "y": 0.321, "name": "Grant County International Airport", "city": "Grant County Airport", "state": "Washington", "country": "United States", "lat": 47.20769882, "lon": -119.3199997}, {"old_name": "Missoula International", "x": 0.6579999999999999, "y": 0.3238, "name": "Missoula International Airport", "city": "Missoula", "state": "Montana", "country": "United States", "lat": 46.9192, "lon": -114.084}, {"old_name": "Hector International", "x": 0.746, "y": 0.3238, "name": "Hector International Airport", "city": "Fargo", "state": "North Dakota", "country": "United States", "lat": 46.9195, "lon": -96.8243}, {"old_name": "Duluth International", "x": 0.7696, "y": 0.3245, "name": "Duluth International Airport", "city": "Duluth", "state": "Minnesota", "country": "United States", "lat": 46.838, "lon": -92.1781}, {"old_name": "Bismarck Muni", "x": 0.726, "y": 0.3252, "name": "Bismarck Municipal Airport", "city": "Bismarck", "state": "North Dakota", "country": "United States", "lat": 46.7745, "lon": -100.757}, {"old_name": "Pullman/Moscow Regional", "x": 0.6427, "y": 0.3254, "name": "Pullman-Moscow Regional Airport", "city": "Pullman", "state": "Washington", "country": "United States", "lat": 46.743, "lon": -117.119}, {"old_name": "Helena Regional", "x": 0.6688, "y": 0.3268, "name": "Helena Regional Airport", "city": "Helena", "state": "Montana", "country": "United States", "lat": 46.6104, "lon": -111.99}, {"old_name": "Yakima Air Terminal", "x": 0.6252, "y": 0.3271, "name": "Yakima Air Terminal", "city": "Yakima", "state": "Washington", "country": "United States", "lat": 46.5703, "lon": -120.54}, {"old_name": "Marquette County", "x": 0.7931, "y": 0.3275, "name": "Marquette County", "city": "Negaunee", "state": "Michigan", "country": "United States", "lat": 46.533883, "lon": -87.562556}, {"old_name": "Lewiston-Nez Perce County", "x": 0.6431, "y": 0.32899999999999996, "name": "Lewiston Nez Perce County Airport", "city": "Lewiston", "state": "Idaho", "country": "United States", "lat": 46.3776, "lon": -117.011}, {"old_name": "Tri-Cities", "x": 0.6324, "y": 0.33, "name": "Tri-Cities Regional Airport", "city": "Blountville", "state": "Tennessee", "country": "United States", "lat": 36.4805, "lon": -82.4087}, {"old_name": "Walla Walla Regional", "x": 0.6367, "y": 0.3317, "name": "Walla Walla Regional Airport", "city": "Walla Walla", "state": "Washington", "country": "United States", "lat": 46.0879, "lon": -118.283}, {"old_name": "Bert Mooney", "x": 0.6662, "y": 0.33299999999999996, "name": "Bert Mooney Airport", "city": "Butte", "state": "Montana", "country": "United States", "lat": 45.9544, "lon": -112.503}, {"old_name": "Billings Logan International", "x": 0.6863, "y": 0.3344, "name": "Logan International Airport", "city": "Billings", "state": "Montana", "country": "United States", "lat": 45.8034, "lon": -108.537}, {"old_name": "Gallatin Field", "x": 0.6729999999999999, "y": 0.3347, "name": "Gallatin Field Airport", "city": "Bozeman", "state": "Montana", "country": "United States", "lat": 45.7722, "lon": -111.157}, {"old_name": "Eastern Oregon Regional At Pen", "x": 0.6338, "y": 0.3355, "name": "Eastern Oregon Regional Airport", "city": "Pendleton", "state": "Oregon", "country": "United States", "lat": 45.6893, "lon": -118.839}, {"old_name": "Portland International", "x": 0.6147, "y": 0.3365, "name": "Portland International Airport", "city": "Portland", "state": "Oregon", "country": "United States", "lat": 45.5867, "lon": -122.587}, {"old_name": "Mcnary Fld", "x": 0.6127, "y": 0.34299999999999997, "name": "Mcnary Fld", "city": "Salem", "state": "Oregon", "country": "United States", "lat": 44.909444, "lon": -123.0025}, {"old_name": "Minneapolis-St Paul Intl/Wold-", "x": 0.7644, "y": 0.3432, "name": "Minneapolis St Paul International Airport", "city": "St. Paul", "state": "Minnesota", "country": "United States", "lat": 44.8793, "lon": -93.1987}, {"old_name": "Bangor International", "x": 0.8885, "y": 0.3439, "name": "Bangor International Airport", "city": "Bangor", "state": "Maine", "country": "United States", "lat": 44.8086, "lon": -68.8167}, {"old_name": "Central Wisconsin", "x": 0.7824, "y": 0.3442, "name": "Central Wisconsin Airport", "city": "Mosinee", "state": "Wisconsin", "country": "United States", "lat": 44.7846, "lon": -89.6704}, {"old_name": "Cherry Capital", "x": 0.8032, "y": 0.3446, "name": "Cherry Capital Airport", "city": "Traverse City", "state": "Michigan", "country": "United States", "lat": 44.7365, "lon": -85.5796}, {"old_name": "Austin Straubel International", "x": 0.7903, "y": 0.34700000000000003, "name": "Austin Straubel International Airport", "city": "Green Bay", "state": "Wisconsin", "country": "United States", "lat": 44.4923, "lon": -88.1274}, {"old_name": "Burlington International", "x": 0.8665, "y": 0.3472, "name": "Burlington International Airport", "city": "South Burlington", "state": "Vermont", "country": "United States", "lat": 44.4688, "lon": -73.1552}, {"old_name": "Outagamie County", "x": 0.7883, "y": 0.3492, "name": "Outagamie County Airport", "city": "Appleton", "state": "Wisconsin", "country": "United States", "lat": 44.2603, "lon": -88.5111}, {"old_name": "Roberts Field", "x": 0.6221, "y": 0.3492, "name": "Roberts Field Airport", "city": "Redmond", "state": "Oregon", "country": "United States", "lat": 44.2533, "lon": -121.162}, {"old_name": "Mahlon Sweet Field", "x": 0.6116, "y": 0.3505, "name": "Mahlon Sweet Field Airport", "city": "Eugene", "state": "Oregon", "country": "United States", "lat": 44.1184, "lon": -123.213}, {"old_name": "Rapid City Regional", "x": 0.7142, "y": 0.3512, "name": "Rapid City Regional Airport", "city": "Rapid City", "state": "South Dakota", "country": "United States", "lat": 44.037, "lon": -103.06}, {"old_name": "Wittman Regional", "x": 0.7881, "y": 0.3518, "name": "Wittman Regional Airport", "city": "Oshkosh", "state": "Wisconsin", "country": "United States", "lat": 43.98440170000001, "lon": -88.55699921}, {"old_name": "Rochester International", "x": 0.768, "y": 0.3525, "name": "Rochester International", "city": "Rochester", "state": "Minnesota", "country": "United States", "lat": 43.908333, "lon": -92.5}, {"old_name": "La Crosse Muni", "x": 0.7743, "y": 0.3528, "name": "La Crosse Municipal Airport", "city": "La Crosse", "state": "Wisconsin", "country": "United States", "lat": 43.8751, "lon": -91.2638}, {"old_name": "Portland International Jetport", "x": 0.8809999999999999, "y": 0.355, "name": "Jetport International Airport", "city": "Portland", "state": "Maine", "country": "United States", "lat": 43.6475, "lon": -70.3103}, {"old_name": "Jackson Hole", "x": 0.6751, "y": 0.3554, "name": "Jackson Hole Airport", "city": "Jackson", "state": "Wyoming", "country": "United States", "lat": 43.6034, "lon": -110.736}, {"old_name": "Joe Foss Field", "x": 0.7464, "y": 0.3557, "name": "Sioux Falls Regional Airport", "city": "Sioux Falls", "state": "South Dakota", "country": "United States", "lat": 43.5813, "lon": -96.7317}, {"old_name": "Boise Air Terminal /Gowen Fld/", "x": 0.6472, "y": 0.3558, "name": "Boise Air Terminal", "city": "Boise", "state": "Idaho", "country": "United States", "lat": 43.5709, "lon": -116.222}, {"old_name": "Mbs International", "x": 0.8109, "y": 0.3561, "name": "MBS International Airport", "city": "Freeland", "state": "Michigan", "country": "United States", "lat": 43.5311, "lon": -84.0933}, {"old_name": "Fanning Field", "x": 0.6683, "y": 0.3563, "name": "Fanning Field Airport", "city": "Idaho Falls", "state": "Idaho", "country": "United States", "lat": 43.5147, "lon": -112.068}, {"old_name": "Friedman Memorial", "x": 0.657, "y": 0.3564, "name": "Friedman Memorial Airport", "city": "Hailey", "state": "Idaho", "country": "United States", "lat": 43.5065, "lon": -114.301}, {"old_name": "North Bend Muni", "x": 0.6063, "y": 0.3572, "name": "North Bend Municipal Airport", "city": "North Bend", "state": "Oregon", "country": "United States", "lat": 43.4141, "lon": -124.244}, {"old_name": "Muskegon County", "x": 0.7999, "y": 0.3596, "name": "Muskegon County Airport", "city": "Muskegon", "state": "Michigan", "country": "United States", "lat": 43.1646, "lon": -86.2367}, {"old_name": "Oneida County", "x": 0.8552, "y": 0.3598, "name": "Rhinelander-Oneida County Airport", "city": "Rhinelander", "state": "Wisconsin", "country": "United States", "lat": 45.626000000000005, "lon": -89.4626}, {"old_name": "Dane County Regional-Truax Fie", "x": 0.7841, "y": 0.3599, "name": "Dane County Regional Airport-Truax Field", "city": "Madison", "state": "Wisconsin", "country": "United States", "lat": 43.1351, "lon": -89.3465}, {"old_name": "Greater Rochester International", "x": 0.8435, "y": 0.3601, "name": "Greater Rochester International Airport", "city": "Rochester", "state": "New York", "country": "United States", "lat": 43.1309, "lon": -77.6697}, {"old_name": "Syracuse Hancock International", "x": 0.8515, "y": 0.3602, "name": "Hancock International Airport", "city": "Syracuse", "state": "New York", "country": "United States", "lat": 43.1141, "lon": -76.1121}, {"old_name": "Bishop International", "x": 0.8126, "y": 0.3615, "name": "Bishop International Airport", "city": "Flint", "state": "Michigan", "country": "United States", "lat": 42.9756, "lon": -83.7411}, {"old_name": "General Mitchell International", "x": 0.7914, "y": 0.3617, "name": "General Mitchell International Airport", "city": "Milwaukee", "state": "Wisconsin", "country": "United States", "lat": 42.9471, "lon": -87.9051}, {"old_name": "Greater Buffalo International", "x": 0.8381, "y": 0.3618, "name": "Greater Buffalo International Airport", "city": "Buffalo", "state": "New York", "country": "United States", "lat": 42.9309, "lon": -78.738}, {"old_name": "Manchester", "x": 0.8753, "y": 0.3619, "name": "Manchester\u201a\u00c4\u00ecBoston Regional Airport", "city": "Manchester", "state": "New Hampshire", "country": "United States", "lat": 42.9325, "lon": -71.435556}, {"old_name": "Pocatello Regional", "x": 0.6657, "y": 0.3621, "name": "Pocatello Municipal Airport", "city": "Pocatello", "state": "Idaho", "country": "United States", "lat": 42.9056, "lon": -112.588}, {"old_name": "Natrona County International", "x": 0.6969, "y": 0.3621, "name": "Natrona County International Airport", "city": "Casper", "state": "Wyoming", "country": "United States", "lat": 42.8966, "lon": -106.465}, {"old_name": "Gerald R. Ford International Airport", "x": 0.8035, "y": 0.3623, "name": "Gerald R. Ford International Airport", "city": "Cascade Charter Township", "state": "Michigan", "country": "United States", "lat": 42.880833, "lon": -85.522778}, {"old_name": "Capital City", "x": 0.8083, "y": 0.3633, "name": "Lansing Capital City Airport", "city": "Lansing", "state": "Michigan", "country": "United States", "lat": 42.7728, "lon": -84.5888}, {"old_name": "Albany County", "x": 0.8632, "y": 0.3636, "name": "Albany County", "city": "Latham", "state": "New York", "country": "United States", "lat": 42.749167, "lon": -73.801944}, {"old_name": "Waterloo Muni", "x": 0.7685, "y": 0.3655, "name": "Waterloo Municipal Airport", "city": "Waterloo", "state": "Iowa", "country": "United States", "lat": 42.5509, "lon": -92.3951}, {"old_name": "Tompkins County", "x": 0.8497, "y": 0.3661, "name": "Tompkins County Airport", "city": "Ithaca", "state": "New York", "country": "United States", "lat": 42.4898, "lon": -76.4627}, {"old_name": "Twin Falls-Sun Valley Regional", "x": 0.6559999999999999, "y": 0.3662, "name": "Twin Falls-Sun Valley Regional Airport", "city": "Twin Falls", "state": "Idaho", "country": "United States", "lat": 42.4838, "lon": -114.485}, {"old_name": "Detroit City", "x": 0.8163, "y": 0.3669, "name": "Detroit City", "city": "Detroit", "state": "Michigan", "country": "United States", "lat": 42.409167, "lon": -83.01}, {"old_name": "Sioux Gateway", "x": 0.7482, "y": 0.3669, "name": "Sioux Gateway Airport", "city": "Sioux City", "state": "Iowa", "country": "United States", "lat": 42.4012, "lon": -96.3784}, {"old_name": "Dubuque Regional", "x": 0.7771, "y": 0.3669, "name": "Dubuque Regional Airport", "city": "Dubuque", "state": "Iowa", "country": "United States", "lat": 42.4047, "lon": -90.7037}, {"old_name": "Rogue Valley Intl- M", "x": 0.6133, "y": 0.3672, "name": "Rogue Valley International-Medford Airport", "city": "Central Point", "state": "Oregon", "country": "United States", "lat": 42.3691, "lon": -122.874}, {"old_name": "General Edward Lawrence Logan", "x": 0.8775, "y": 0.3673, "name": "Gen E L Logan International Airport", "city": "Boston", "state": "Massachusetts", "country": "United States", "lat": 42.3717, "lon": -71.0281}, {"old_name": "Worcester Muni", "x": 0.873, "y": 0.3682, "name": "Worcester Municipal Airport", "city": "Worcester", "state": "Massachusetts", "country": "United States", "lat": 42.2699, "lon": -71.8706}, {"old_name": "Kalamazoo/Battle Creek Interna", "x": 0.8034, "y": 0.3685, "name": "Kalamazoo-Battle Creek International Airport", "city": "Kalamazoo", "state": "Michigan", "country": "United States", "lat": 42.2398, "lon": -85.5563}, {"old_name": "Detroit Metropolitan Wayne Cou", "x": 0.8146, "y": 0.3687, "name": "Detroit Metropolitan Wayne County Airport", "city": "Detroit", "state": "Michigan", "country": "United States", "lat": 42.2327, "lon": -83.3412}, {"old_name": "Binghamton Regional/Edwin A Li", "x": 0.8521, "y": 0.3688, "name": "Greater Binghamton Edwin A Link Field Airport", "city": "Johnson City", "state": "New York", "country": "United States", "lat": 42.2082, "lon": -75.9825}, {"old_name": "Greater Rockford", "x": 0.7853, "y": 0.3689, "name": "Greater Rockford Airport", "city": "Rockford", "state": "Illinois", "country": "United States", "lat": 42.2035, "lon": -89.0955}, {"old_name": "Elmira/Corning Regional", "x": 0.8475, "y": 0.3692, "name": "Elmira Corning Regional Airport", "city": "Horseheads", "state": "New York", "country": "United States", "lat": 42.1633, "lon": -76.8973}, {"old_name": "Klamath Falls International", "x": 0.6191, "y": 0.3693, "name": "Klamath Falls International Airport", "city": "Klamath Falls", "state": "Oregon", "country": "United States", "lat": 42.1638, "lon": -121.745}, {"old_name": "Erie International", "x": 0.8308, "y": 0.37, "name": "Erie International Airport", "city": "Erie", "state": "Pennsylvania", "country": "United States", "lat": 42.0829, "lon": -80.1824}, {"old_name": "Chicago O'hare International", "x": 0.7914, "y": 0.371, "name": "Chicago O'Hare International Airport", "city": "Chicago", "state": "Illinois", "country": "United States", "lat": 41.9796, "lon": -87.8825}, {"old_name": "Bradley International", "x": 0.8689, "y": 0.3714, "name": "Bradley International Airport", "city": "Windsor Locks", "state": "Connecticut", "country": "United States", "lat": 41.9271, "lon": -72.6816}, {"old_name": "Cedar Rapids Muni", "x": 0.772, "y": 0.3719, "name": "Cedar Rapids Municipal Airport", "city": "Cedar Rapids", "state": "Iowa", "country": "United States", "lat": 41.8893, "lon": -91.7008}, {"old_name": "William B. Heilig Field", "x": 0.7115, "y": 0.37200000000000005, "name": "William B Heilig Field Airport", "city": "Scottsbluff", "state": "Nebraska", "country": "United States", "lat": 41.8683, "lon": -103.597}, {"old_name": "Merrill C Meigs", "x": 0.7929, "y": 0.3721, "name": "Merrill C Meigs", "city": "Merrill C Meigs", "state": "illinois", "country": "United States", "lat": 41.86, "lon": -87.608611}, {"old_name": "Chicago Midway", "x": 0.7922, "y": 0.3728, "name": "Chicago Midway International Airport", "city": "Chicago", "state": "Illinois", "country": "United States", "lat": 41.7875, "lon": -87.7416}, {"old_name": "Jack Mc Namara Field", "x": 0.6064, "y": 0.3729, "name": "Jack Mcnamara Field Airport", "city": "Crescent City", "state": "California", "country": "United States", "lat": 41.7765, "lon": -124.237}, {"old_name": "Theodore Francis Green State", "x": 0.8753, "y": 0.3734, "name": "Theodore Francis Green State Airport", "city": "Warwick", "state": "Rhode Island", "country": "United States", "lat": 41.723, "lon": -71.4399}, {"old_name": "Michiana Rgnl Transportation C", "x": 0.7995, "y": 0.3736, "name": "South Bend Regional Airport", "city": "South Bend", "state": "Indiana", "country": "United States", "lat": 41.7006, "lon": -86.311}, {"old_name": "Toledo Express", "x": 0.8123, "y": 0.3747, "name": "Toledo Express Airport", "city": "Swanton", "state": "Ohio", "country": "United States", "lat": 41.5923, "lon": -83.8072}, {"old_name": "Des Moines International", "x": 0.7621, "y": 0.3752, "name": "Des Moines International Airport", "city": "Des Moines", "state": "Iowa", "country": "United States", "lat": 41.5328, "lon": -93.6481}, {"old_name": "Stewart Int'l", "x": 0.8617, "y": 0.3755, "name": "Stewart International Airport", "city": "New Windsor", "state": "New York", "country": "United States", "lat": 41.4869, "lon": -74.0974}, {"old_name": "Quad-City", "x": 0.7781, "y": 0.376, "name": "Quad City Airport", "city": "Coal Valley", "state": "Illinois", "country": "United States", "lat": 41.4539, "lon": -90.5058}, {"old_name": "Cleveland-Hopkins International", "x": 0.8222, "y": 0.3764, "name": "Hopkins International Airport", "city": "Cleveland", "state": "Ohio", "country": "United States", "lat": 41.4115, "lon": -81.8339}, {"old_name": "Wilkes-Barre/Scranton International", "x": 0.8534, "y": 0.3771, "name": "Wilkes Barre Scranton International Airport", "city": "Pittston", "state": "Pennsylvania", "country": "United States", "lat": 41.3354, "lon": -75.7294}, {"old_name": "Eppley Airfield", "x": 0.7507, "y": 0.3774, "name": "Eppley Airfield", "city": "Omaha", "state": "Nebraska", "country": "United States", "lat": 41.3, "lon": -95.8998}, {"old_name": "Tweed-New Haven", "x": 0.8679, "y": 0.3778, "name": "Tweed New Haven Airport", "city": "East Haven", "state": "Connecticut", "country": "United States", "lat": 41.2709, "lon": -72.89}, {"old_name": "Youngstown-Warren Regional", "x": 0.8282, "y": 0.3779, "name": "Youngstown-Warren Regional Airport", "city": "Vienna", "state": "Ohio", "country": "United States", "lat": 41.2576, "lon": -80.6648}, {"old_name": "Westchester County", "x": 0.8637, "y": 0.3797, "name": "Westchester County Airport", "city": "Purchase", "state": "New York", "country": "United States", "lat": 41.0693, "lon": -73.7042}, {"old_name": "Fort Wayne International", "x": 0.8052, "y": 0.3805, "name": "Fort Wayne Municipal Airport-Baer Field", "city": "Fort Wayne", "state": "Indiana", "country": "United States", "lat": 40.9883, "lon": -85.1899}, {"old_name": "Arcata", "x": 0.607, "y": 0.3805, "name": "Arcata Airport", "city": "Mckinleyville", "state": "California", "country": "United States", "lat": 40.9698, "lon": -124.108}, {"old_name": "Akron-Canton Regional", "x": 0.8243, "y": 0.3811, "name": "Akron Canton Regional Airport", "city": "Canton", "state": "Ohio", "country": "United States", "lat": 40.9149, "lon": -81.4309}, {"old_name": "Lincoln Muni", "x": 0.7463, "y": 0.3818, "name": "Lincoln Municipal Airport", "city": "Lincoln", "state": "Nebraska", "country": "United States", "lat": 40.8461, "lon": -96.7543}, {"old_name": "University Park", "x": 0.8426, "y": 0.3818, "name": "University Park Airport", "city": "State College", "state": "Pennsylvania", "country": "United States", "lat": 40.8515, "lon": -77.851}, {"old_name": "Elko Muni-J.C. Harris Field", "x": 0.6494, "y": 0.382, "name": "Elko Municipal Airport-J C Harris Field", "city": "Elko", "state": "Nevada", "country": "United States", "lat": 40.829, "lon": -115.78}, {"old_name": "Long Island Mac Arthur", "x": 0.8668, "y": 0.3823, "name": "Long Island Macarthur Airport", "city": "Ronkonkoma", "state": "New York", "country": "United States", "lat": 40.7891, "lon": -73.0984}, {"old_name": "Salt Lake City International", "x": 0.6688, "y": 0.3824, "name": "Salt Lake City International Airport", "city": "Salt Lake City", "state": "Utah", "country": "United States", "lat": 40.7862, "lon": -111.982}, {"old_name": "Burlington Regional", "x": 0.775, "y": 0.3824, "name": "Burlington Alamance Regional Airport", "city": "Burlington", "state": "North Carolina", "country": "United States", "lat": 36.04850006, "lon": -79.47489929}, {"old_name": "La Guardia", "x": 0.8629, "y": 0.3825, "name": "LaGuardia Airport", "city": "Flushing", "state": "New York", "country": "United States", "lat": 40.7731, "lon": -73.8756}, {"old_name": "Newark International", "x": 0.8614, "y": 0.3833, "name": "Newark International Airport", "city": "Newark", "state": "New Jersey", "country": "United States", "lat": 40.6924, "lon": -74.1843}, {"old_name": "Greater Peoria Regional", "x": 0.7823, "y": 0.3835, "name": "Greater Peoria Regional Airport", "city": "Peoria", "state": "Illinois", "country": "United States", "lat": 40.6663, "lon": -89.6909}, {"old_name": "Lehigh Valley International", "x": 0.8549, "y": 0.3837, "name": "Lehigh Valley International Airport", "city": "Allentown", "state": "Pennsylvania", "country": "United States", "lat": 40.6514, "lon": -75.4342}, {"old_name": "John F Kennedy International", "x": 0.8633, "y": 0.3838, "name": "John F Kennedy International Airport", "city": "Jamaica", "state": "New York", "country": "United States", "lat": 40.6437, "lon": -73.79}, {"old_name": "Redding Muni", "x": 0.6163, "y": 0.385, "name": "Redding Municipal Airport", "city": "Redding", "state": "California", "country": "United States", "lat": 40.5056, "lon": -122.302}, {"old_name": "Pittsburgh International", "x": 0.8305, "y": 0.3852, "name": "Pittsburgh International Airport", "city": "Coraopolis", "state": "Pennsylvania", "country": "United States", "lat": 40.4914, "lon": -80.2328}, {"old_name": "Yampa Valley", "x": 0.693, "y": 0.3853, "name": "Yampa Valley Airport", "city": "Hayden", "state": "Colorado", "country": "United States", "lat": 40.485, "lon": -107.219}, {"old_name": "Bloomington/Normal", "x": 0.7862, "y": 0.3853, "name": "Bloomington Normal Airport", "city": "Bloomington", "state": "Illinois", "country": "United States", "lat": 40.4841, "lon": -88.9134}, {"old_name": "Purdue University", "x": 0.7963, "y": 0.3859, "name": "Purdue University Airport", "city": "Lafayette", "state": "Indiana", "country": "United States", "lat": 40.41230011, "lon": -86.93689728}, {"old_name": "Mercer County", "x": 0.8581, "y": 0.3872, "name": "Mercer County Airport", "city": "Bluefield", "state": "New Jersey", "country": "United States", "lat": 37.29579926, "lon": -81.20770264}, {"old_name": "Harrisburg International", "x": 0.8481, "y": 0.38799999999999996, "name": "Harrisburg International Airport", "city": "Middletown", "state": "Pennsylvania", "country": "United States", "lat": 40.1962, "lon": -76.7564}, {"old_name": "University Of Illinois-Willard", "x": 0.7895, "y": 0.3895, "name": "University of Illinois-Willard Airport", "city": "Savoy", "state": "Illinois", "country": "United States", "lat": 40.0367, "lon": -88.2638}, {"old_name": "Port Columbus International", "x": 0.8169, "y": 0.3899, "name": "Port Columbus International Airport", "city": "Columbus", "state": "Ohio", "country": "United States", "lat": 39.9974, "lon": -82.8877}, {"old_name": "Quincy Muni Baldwin Field", "x": 0.7746, "y": 0.3904, "name": "Quincy Municipal Airport-Baldwin Field", "city": "Quincy", "state": "Illinois", "country": "United States", "lat": 39.9348, "lon": -91.196}, {"old_name": "James M Cox Dayton International", "x": 0.8102, "y": 0.3908, "name": "James M Cox Dayton International Airport", "city": "Dayton", "state": "Ohio", "country": "United States", "lat": 39.8968, "lon": -84.2207}, {"old_name": "Philadelphia International", "x": 0.8559, "y": 0.3911, "name": "Philadelphia International Airport", "city": "Philadelphia", "state": "Pennsylvania", "country": "United States", "lat": 39.8768, "lon": -75.2419}, {"old_name": "Capital", "x": 0.7824, "y": 0.3914, "name": "Lansing Capital City Airport", "city": "Lansing", "state": "Michigan", "country": "United States", "lat": 42.7728, "lon": -84.5888}, {"old_name": "Decatur", "x": 0.7865, "y": 0.3915, "name": "Decatur Airport", "city": "Decatur", "state": "Illinois", "country": "United States", "lat": 39.8335, "lon": -88.8773}, {"old_name": "Chico Muni", "x": 0.6185, "y": 0.3918, "name": "Chico Municipal Airport", "city": "Chico", "state": "California", "country": "United States", "lat": 39.7987, "lon": -121.854}, {"old_name": "Stapleton International", "x": 0.7049, "y": 0.392, "name": "Stapleton International", "city": "Stapleton", "state": "Colorado", "country": "United States", "lat": 39.760721999999994, "lon": -104.891972}, {"old_name": "Indianapolis International", "x": 0.7996, "y": 0.3926, "name": "Indianapolis International Airport", "city": "Indianapolis", "state": "Indiana", "country": "United States", "lat": 39.7322, "lon": -86.2707}, {"old_name": "Eagle County Regional", "x": 0.6946, "y": 0.3933, "name": "Eagle County Regional Airport", "city": "Gypsum", "state": "Colorado", "country": "United States", "lat": 39.6395, "lon": -106.912}, {"old_name": "Reno/Tahoe International", "x": 0.6291, "y": 0.3947, "name": "Reno-Tahoe International Airport", "city": "Reno", "state": "Nevada", "country": "United States", "lat": 39.5064, "lon": -119.776}, {"old_name": "Atlantic City International", "x": 0.8593, "y": 0.3951, "name": "Atlantic City International Airport", "city": "Egg Harbor City", "state": "New Jersey", "country": "United States", "lat": 39.4512, "lon": -74.5716}, {"old_name": "Hulman Regional", "x": 0.7944, "y": 0.3951, "name": "Terre Haute International Hulman Field", "city": "Terre Haute", "state": "Indiana", "country": "United States", "lat": 39.45149994, "lon": -87.30760193}, {"old_name": "Kansas City International", "x": 0.7567, "y": 0.3966, "name": "Kansas City International Airport", "city": "Kansas City", "state": "Missouri", "country": "United States", "lat": 39.2992, "lon": -94.7171}, {"old_name": "Aspen-Pitkin Co/Sardy Field", "x": 0.6948, "y": 0.3973, "name": "Aspen Pitkin County Airport-Sardy Field", "city": "Aspen", "state": "Colorado", "country": "United States", "lat": 39.2197, "lon": -106.864}, {"old_name": "Baltimore-Washington International", "x": 0.8486, "y": 0.3978, "name": "Baltimore-Washington International Thurgood Mars", "city": "Baltimore", "state": "Maryland", "country": "United States", "lat": 39.1841, "lon": -76.6745}, {"old_name": "Walker Field", "x": 0.6864, "y": 0.3983, "name": "Walker Field Airport", "city": "Grand Junction", "state": "Colorado", "country": "United States", "lat": 39.1217, "lon": -108.529}, {"old_name": "Cincinnati/Northern Kentucky I", "x": 0.8079, "y": 0.39899999999999997, "name": "Greater Cincinnati International Airport", "city": "Hebron", "state": "Ohio", "country": "United States", "lat": 39.0571, "lon": -84.6625}, {"old_name": "Washington Dulles International", "x": 0.8446, "y": 0.4, "name": "Dulles International Airport", "city": "Washington", "state": "Virginia", "country": "United States", "lat": 38.9556, "lon": -77.4484}, {"old_name": "Lake Tahoe", "x": 0.628, "y": 0.4005, "name": "Lake Tahoe Airport", "city": "South Lake Tahoe", "state": "California", "country": "United States", "lat": 38.89390182, "lon": -119.9950027}, {"old_name": "Washington National", "x": 0.8467, "y": 0.4008, "name": "Washington National Airport", "city": "Arlington", "state": "Virginia", "country": "United States", "lat": 38.849000000000004, "lon": -77.0438}, {"old_name": "Columbia Regional", "x": 0.7694, "y": 0.4012, "name": "Columbia Regional Airport", "city": "Columbia", "state": "Missouri", "country": "United States", "lat": 38.8174, "lon": -92.2218}, {"old_name": "City Of Colorado Springs Muni", "x": 0.7059, "y": 0.4013, "name": "City of Colorado Springs Municipal Airport", "city": "Colorado Springs", "state": "Colorado", "country": "United States", "lat": 38.7829, "lon": -104.697}, {"old_name": "Lambert-St Louis International", "x": 0.7789, "y": 0.4018, "name": "Lambert St Louis International Airport", "city": "St. Louis", "state": "Missouri", "country": "United States", "lat": 38.7414, "lon": -90.3647}, {"old_name": "Sacramento Metropolitan", "x": 0.6198, "y": 0.4023, "name": "Sacramento International Airport", "city": "Sacramento", "state": "California", "country": "United States", "lat": 38.695555999999996, "lon": -121.590833}, {"old_name": "Gunnison County", "x": 0.6945, "y": 0.4039, "name": "Gunnison County Airport", "city": "Gunnison", "state": "Colorado", "country": "United States", "lat": 38.5356, "lon": -106.941}, {"old_name": "Sonoma County", "x": 0.6136, "y": 0.4041, "name": "Sonoma County Airport", "city": "Windsor", "state": "California", "country": "United States", "lat": 38.510999999999996, "lon": -122.805}, {"old_name": "Yeager", "x": 0.8235, "y": 0.4054, "name": "Yeager Airport", "city": "Charleston", "state": "West Virginia", "country": "United States", "lat": 38.3697, "lon": -81.5951}, {"old_name": "Tri-State/Milton J.Ferguson Fi", "x": 0.8186, "y": 0.4055, "name": "Tri State Walker Long Field Airport", "city": "Huntington", "state": "West Virginia", "country": "United States", "lat": 38.37, "lon": -82.5542}, {"old_name": "Pueblo Memorial", "x": 0.7069, "y": 0.4062, "name": "Pueblo Memorial Airport", "city": "Pueblo", "state": "Colorado", "country": "United States", "lat": 38.2836, "lon": -104.496}, {"old_name": "Louisville International", "x": 0.8024, "y": 0.4073, "name": "Louisville International Airport", "city": "Louisville", "state": "Kentucky", "country": "United States", "lat": 38.1865, "lon": -85.7462}, {"old_name": "Charlottesville-Albemarle", "x": 0.8395, "y": 0.4077, "name": "Charlottesville Albemarle Airport", "city": "Earlysville", "state": "Virginia", "country": "United States", "lat": 38.14, "lon": -78.4487}, {"old_name": "Evansville Regional", "x": 0.7933, "y": 0.4086, "name": "Evansville Regional Airport", "city": "Evansville", "state": "Indiana", "country": "United States", "lat": 38.0464, "lon": -87.5308}, {"old_name": "Blue Grass", "x": 0.8082, "y": 0.4086, "name": "Blue Grass Field", "city": "Lexington", "state": "Kentucky", "country": "United States", "lat": 38.0384, "lon": -84.5989}, {"old_name": "Stockton Metropolitan", "x": 0.6216, "y": 0.41, "name": "Stockton Metropolitan Airport", "city": "Stockton", "state": "California", "country": "United States", "lat": 37.8973, "lon": -121.253}, {"old_name": "Greenbrier Valley", "x": 0.8296, "y": 0.4103, "name": "Greenbrier Valley Airport", "city": "Lewisburg", "state": "West Virginia", "country": "United States", "lat": 37.8571, "lon": -80.4044}, {"old_name": "Williamson County Regional", "x": 0.7858, "y": 0.4114, "name": "Williamson County Regional Airport", "city": "Marion", "state": "Illinois", "country": "United States", "lat": 37.7467, "lon": -89.0104}, {"old_name": "Forney Aaf", "x": 0.7698, "y": 0.4115, "name": "Waynesville Regional Airport At Forney Field", "city": "Fort Leonard Wood", "state": "Missouri", "country": "United States", "lat": 37.7327, "lon": -92.1361}, {"old_name": "Metropolitan Oakland International", "x": 0.6166, "y": 0.4117, "name": "Oakland International Airport", "city": "Oakland", "state": "California", "country": "United States", "lat": 37.7158, "lon": -122.209}, {"old_name": "Wichita Mid-Continent", "x": 0.7429, "y": 0.4123, "name": "Wichita Mid-Continent Airport", "city": "Wichita", "state": "Kansas", "country": "United States", "lat": 37.6531, "lon": -97.43}, {"old_name": "Modesto City-County--Harry Sha", "x": 0.6231, "y": 0.4126, "name": "Modesto City County Airport-Harry Sham Field", "city": "Modesto", "state": "California", "country": "United States", "lat": 37.6319, "lon": -120.959}, {"old_name": "Mammoth Lakes", "x": 0.6339, "y": 0.4126, "name": "Mammoth June Lakes Airport", "city": "Mammoth Lakes", "state": "California", "country": "United States", "lat": 37.6288, "lon": -118.844}, {"old_name": "San Francisco International", "x": 0.6159, "y": 0.4126, "name": "San Francisco International Airport", "city": "San Francisco", "state": "California", "country": "United States", "lat": 37.6148, "lon": -122.392}, {"old_name": "Richmond International", "x": 0.8453, "y": 0.4137, "name": "Richmond", "city": "Richmond", "state": "Virginia", "country": "United States", "lat": 37.5406, "lon": -77.4334}, {"old_name": "San Jose International", "x": 0.6181, "y": 0.4151, "name": "Norman Y Mineta San Jose International Airport", "city": "San Jose", "state": "California", "country": "United States", "lat": 37.3679, "lon": -121.926}, {"old_name": "Roanoke Regional/Woodrum Field", "x": 0.8318, "y": 0.4154, "name": "Roanoke Regional Airport-Woodrum Field", "city": "Roanoke", "state": "Virginia", "country": "United States", "lat": 37.3203, "lon": -79.9688}, {"old_name": "Merced Municipal/Macready Fiel", "x": 0.6253, "y": 0.4158, "name": "Merced Municipal Airport-Macready Field", "city": "Merced", "state": "California", "country": "United States", "lat": 37.2892, "lon": -120.515}, {"old_name": "Springfield Regional", "x": 0.7635, "y": 0.4162, "name": "Springfield Regional Airport", "city": "Springfield", "state": "Missouri", "country": "United States", "lat": 37.243, "lon": -93.3817}, {"old_name": "Cape Girardeau Regional", "x": 0.7829, "y": 0.4164, "name": "Cape Girardeau Municipal Airport", "city": "Scott City", "state": "Missouri", "country": "United States", "lat": 37.2272, "lon": -89.5637}, {"old_name": "Durango-La Plata County", "x": 0.6903, "y": 0.4171, "name": "Durango la Plata County Airport", "city": "Durango", "state": "Colorado", "country": "United States", "lat": 37.1595, "lon": -107.751}, {"old_name": "Joplin Regional", "x": 0.7578, "y": 0.4171, "name": "Joplin Regional Airport", "city": "Webb City", "state": "Missouri", "country": "United States", "lat": 37.147, "lon": -94.5019}, {"old_name": "Newport News/Williamsburg Inte", "x": 0.8495, "y": 0.4173, "name": "Newport News-Williamsburg International Airport", "city": "Newport News", "state": "Virginia", "country": "United States", "lat": 37.1306, "lon": -76.5026}, {"old_name": "Barkley Regional", "x": 0.787, "y": 0.418, "name": "Barkley Regional Airport", "city": "West Paducah", "state": "Kentucky", "country": "United States", "lat": 37.0612, "lon": -88.7672}, {"old_name": "Norfolk International", "x": 0.851, "y": 0.4196, "name": "Norfolk International Airport", "city": "Norfolk", "state": "Virginia", "country": "United States", "lat": 36.8977, "lon": -76.2154}, {"old_name": "Fresno Air Terminal", "x": 0.6294, "y": 0.4207, "name": "Amedee Army Air Field", "city": "Herlong", "state": "California", "country": "United States", "lat": 40.2664, "lon": -120.151}, {"old_name": "Monterey Peninsula", "x": 0.6186, "y": 0.4225, "name": "Monterey Peninsula Airport", "city": "Monterey", "state": "California", "country": "United States", "lat": 36.5872, "lon": -121.851}, {"old_name": "Tri-Cities Regional Tn/Va", "x": 0.8194, "y": 0.4236, "name": "Tri-Cities Regional Airport", "city": "Blountville", "state": "Tennessee", "country": "United States", "lat": 36.4805, "lon": -82.4087}, {"old_name": "Tulsa International", "x": 0.7507, "y": 0.4262, "name": "Tulsa International Airport", "city": "Tulsa", "state": "Oklahoma", "country": "United States", "lat": 36.1877, "lon": -95.8892}, {"old_name": "Nashville International", "x": 0.7976, "y": 0.4269, "name": "Nashville International Airport", "city": "Nashville", "state": "Tennessee", "country": "United States", "lat": 36.1342, "lon": -86.6682}, {"old_name": "Piedmont Triad International", "x": 0.8320000000000001, "y": 0.4272, "name": "Triad International Airport", "city": "Greensboro", "state": "North Carolina", "country": "United States", "lat": 36.1038, "lon": -79.9427}, {"old_name": "Mc Carran International", "x": 0.6526, "y": 0.4273, "name": "Mccarran International Airport", "city": "Las Vegas", "state": "Nevada", "country": "United States", "lat": 36.0806, "lon": -115.143}, {"old_name": "Drake Field", "x": 0.7595, "y": 0.4281, "name": "Drake Field", "city": "Fayetteville", "state": "Arizona", "country": "United States", "lat": 36.00510025, "lon": -94.17009735}, {"old_name": "Raleigh-Durham International", "x": 0.8378, "y": 0.4293, "name": "Durham International Airport", "city": "Raleigh/Durham", "state": "North Carolina", "country": "United States", "lat": 35.8729, "lon": -78.7923}, {"old_name": "Mc Ghee Tyson", "x": 0.8113, "y": 0.4299, "name": "Mcghee Tyson Airport", "city": "Knoxville", "state": "Tennessee", "country": "United States", "lat": 35.8064, "lon": -83.9889}, {"old_name": "Asheville Regional", "x": 0.8187, "y": 0.4335, "name": "Asheville Regional Airport", "city": "Fletcher", "state": "North Carolina", "country": "United States", "lat": 35.4349, "lon": -82.5373}, {"old_name": "Meadows Field", "x": 0.6327, "y": 0.4335, "name": "Kern County-Meadows Field Airport", "city": "Bakersfield", "state": "California", "country": "United States", "lat": 35.4288, "lon": -119.044}, {"old_name": "Will Rogers World", "x": 0.742, "y": 0.4339, "name": "Will Rogers World Airport", "city": "Oklahoma City", "state": "Oklahoma", "country": "United States", "lat": 35.3981, "lon": -97.5974}, {"old_name": "Fort Smith Regional", "x": 0.7585, "y": 0.4344, "name": "Smith Field Airport", "city": "Fort Smith", "state": "Arkansas", "country": "United States", "lat": 36.1881, "lon": -94.4944}, {"old_name": "Kinston Regional Jetport At St", "x": 0.8438, "y": 0.4345, "name": "Kinston Jetport Stallings Airport", "city": "Kinston", "state": "North Carolina", "country": "United States", "lat": 35.3243, "lon": -77.6115}, {"old_name": "San Luis Obispo County-Mc Ches", "x": 0.6247, "y": 0.4354, "name": "San Luis Obispo County Airport", "city": "San Luis Obispo", "state": "California", "country": "United States", "lat": 35.239000000000004, "lon": -120.641}, {"old_name": "Amarillo International", "x": 0.7211, "y": 0.4356, "name": "Amarillo International Airport", "city": "Amarillo", "state": "Texas", "country": "United States", "lat": 35.2177, "lon": -101.706}, {"old_name": "Charlotte/Douglas International", "x": 0.8268, "y": 0.4356, "name": "Douglas International Airport", "city": "Charlotte", "state": "North Carolina", "country": "United States", "lat": 35.2226, "lon": -80.946}, {"old_name": "Flagstaff Pulliam", "x": 0.6704, "y": 0.4363, "name": "Flagstaff Pulliam Airport", "city": "Flagstaff", "state": "Arizona", "country": "United States", "lat": 35.139, "lon": -111.675}, {"old_name": "Memphis International", "x": 0.7808, "y": 0.4372, "name": "Memphis International Airport", "city": "Memphis", "state": "Tennessee", "country": "United States", "lat": 35.047, "lon": -89.9823}, {"old_name": "Albuquerque International", "x": 0.6961, "y": 0.4373, "name": "Albuquerque International Airport", "city": "Albuquerque", "state": "New Mexico", "country": "United States", "lat": 35.0494, "lon": -106.625}, {"old_name": "Lovell Field", "x": 0.8052, "y": 0.4373, "name": "Chattanooga Metropolitan Airport", "city": "Chattanooga", "state": "Tennessee", "country": "United States", "lat": 35.0373, "lon": -85.1966}, {"old_name": "Fayetteville Regional/Grannis", "x": 0.8374, "y": 0.4377, "name": "Fayetteville Regional Airport", "city": "Fayetteville", "state": "North Carolina", "country": "United States", "lat": 34.9914, "lon": -78.8889}, {"old_name": "Santa Maria Pub/Capt G Allan H", "x": 0.6256, "y": 0.4386, "name": "Santa Maria Public Airport", "city": "Santa Maria", "state": "California", "country": "United States", "lat": 34.8888, "lon": -120.437}, {"old_name": "Greenville-Spartanburg", "x": 0.8204, "y": 0.4386, "name": "Greenville Spartanburg International Airport", "city": "Greer", "state": "South Carolina", "country": "United States", "lat": 34.8907, "lon": -82.2167}, {"old_name": "Albert J Ellis", "x": 0.8438, "y": 0.4393, "name": "Albert J Ellis Airport", "city": "Richlands", "state": "North Carolina", "country": "United States", "lat": 34.8307, "lon": -77.6053}, {"old_name": "Adams Field", "x": 0.7694, "y": 0.4402, "name": "Adams Field Airport", "city": "Little Rock", "state": "Arkansas", "country": "United States", "lat": 34.7278, "lon": -92.219}, {"old_name": "Huntsville Intl-Carl T Jones F", "x": 0.7972, "y": 0.4411, "name": "Huntsville International Airport", "city": "Huntsville", "state": "Alabama", "country": "United States", "lat": 34.6492, "lon": -86.7767}, {"old_name": "Lawton Muni", "x": 0.7379, "y": 0.4418, "name": "Lawton Municipal Airport", "city": "Lawton", "state": "Oklahoma", "country": "United States", "lat": 34.573, "lon": -98.4135}, {"old_name": "Santa Barbara Muni", "x": 0.6288, "y": 0.4431, "name": "Santa Barbara Municipal Airport", "city": "Goleta", "state": "California", "country": "United States", "lat": 34.4255, "lon": -119.835}, {"old_name": "New Hanover International", "x": 0.8423, "y": 0.4446, "name": "Wilmington International Airport", "city": "Wilmington", "state": "North Carolina", "country": "United States", "lat": 34.2668, "lon": -77.912}, {"old_name": "Oxnard", "x": 0.632, "y": 0.4453, "name": "Oxnard Airport", "city": "Oxnard", "state": "California", "country": "United States", "lat": 34.1984, "lon": -119.206}, {"old_name": "Burbank-Glendale-Pasadena", "x": 0.6363, "y": 0.4453, "name": "Burbank Glendale Pasadena Airport", "city": "Burbank", "state": "California", "country": "United States", "lat": 34.1963, "lon": -118.352}, {"old_name": "Ontario International", "x": 0.6402, "y": 0.4467, "name": "Ontario International Airport", "city": "Ontario", "state": "California", "country": "United States", "lat": 34.062, "lon": -117.594}, {"old_name": "Sheppard Afb/Wichita Falls Mun", "x": 0.7375, "y": 0.4474, "name": "Sheppard Air Force Base", "city": "Wichita Falls", "state": "Texas", "country": "United States", "lat": 33.9862, "lon": -98.4984}, {"old_name": "Los Angeles International", "x": 0.6361, "y": 0.4478, "name": "Los Angeles International Airport", "city": "Los Angeles", "state": "California", "country": "United States", "lat": 33.9456, "lon": -118.391}, {"old_name": "Columbia Metropolitan", "x": 0.826, "y": 0.4478, "name": "Columbia Metropolitan Airport", "city": "West Columbia", "state": "South Carolina", "country": "United States", "lat": 33.9468, "lon": -81.1241}, {"old_name": "Palm Springs Regional", "x": 0.6457, "y": 0.4489, "name": "Palm Springs International Airport", "city": "Palm Springs", "state": "California", "country": "United States", "lat": 33.8227, "lon": -116.509}, {"old_name": "Long Beach /Daugherty Field/", "x": 0.6374, "y": 0.449, "name": "Long Beach Daugherty Field Airport", "city": "Long Beach", "state": "California", "country": "United States", "lat": 33.8186, "lon": -118.144}, {"old_name": "Myrtle Beach International", "x": 0.8371, "y": 0.4503, "name": "Myrtle Beach International Airport", "city": "Myrtle Beach", "state": "South Carolina", "country": "United States", "lat": 33.6821, "lon": -78.9228}, {"old_name": "John Wayne Airport-Orange Coun", "x": 0.6388, "y": 0.4503, "name": "John Wayne Airport", "city": "Arthurville", "state": "Santa Ana", "country": "United States", "lat": 33.675556, "lon": -117.868333}, {"old_name": "Lubbock International", "x": 0.7205, "y": 0.4504, "name": "Lubbock International Airport", "city": "Lubbock", "state": "Texas", "country": "United States", "lat": 33.6566, "lon": -101.821}, {"old_name": "The William B Hartsfield Atlan", "x": 0.8091, "y": 0.4506, "name": "Hartsfield-Jackson Atlanta International Airport", "city": "Atlanta", "state": "Georgia", "country": "United States", "lat": 33.6558, "lon": -84.4333}, {"old_name": "Birmingham International", "x": 0.7973, "y": 0.4514, "name": "Birmingham International Airport", "city": "Birmingham", "state": "Alabama", "country": "United States", "lat": 33.563889, "lon": -86.752222}, {"old_name": "Texarkana Regional-Webb Field", "x": 0.7604, "y": 0.4524, "name": "Texarkana Regional Airport", "city": "Texarkana", "state": "Arkansas", "country": "United States", "lat": 33.457, "lon": -93.9943}, {"old_name": "Phoenix Sky Harbor International", "x": 0.6686, "y": 0.4526, "name": "Sky Harbor International Airport", "city": "Phoenix", "state": "Arizona", "country": "United States", "lat": 33.4376, "lon": -112.03}, {"old_name": "Bush Field", "x": 0.8216, "y": 0.4532, "name": "Bush Field Airport", "city": "Augusta", "state": "Georgia", "country": "United States", "lat": 33.3735, "lon": -81.9732}, {"old_name": "Charleston Afb/Intl", "x": 0.8314, "y": 0.4577, "name": "Charleston International Airport", "city": "North Charleston", "state": "South Carolina", "country": "United States", "lat": 32.8838, "lon": -80.0356}, {"old_name": "Dallas/Fort Worth International", "x": 0.7449, "y": 0.4578, "name": "Fort Worth International Airport", "city": "Dallas", "state": "Texas", "country": "United States", "lat": 32.9222, "lon": -97.0409}, {"old_name": "Dallas Love Field", "x": 0.7458, "y": 0.4582, "name": "Dallas Love Field Airport", "city": "Dallas", "state": "Texas", "country": "United States", "lat": 32.8439, "lon": -96.8496}, {"old_name": "San Diego Intl-Lindbergh Fld", "x": 0.6423, "y": 0.4593, "name": "San Diego International Airport", "city": "San Diego", "state": "California", "country": "United States", "lat": 32.7299, "lon": -117.195}, {"old_name": "Yuma Mcas/Yuma International", "x": 0.6554, "y": 0.46, "name": "Yuma International Airport", "city": "Yuma", "state": "Arizona", "country": "United States", "lat": 32.6685, "lon": -114.599}, {"old_name": "Columbus Metropolitan", "x": 0.8065, "y": 0.4614, "name": "Columbus Metropolitan Airport", "city": "Columbus", "state": "Georgia", "country": "United States", "lat": 32.5184, "lon": -84.9401}, {"old_name": "Monroe Regional", "x": 0.7703, "y": 0.4614, "name": "Monroe Regional Airport", "city": "Monroe", "state": "Louisiana", "country": "United States", "lat": 32.5099, "lon": -92.044}, {"old_name": "Shreveport Regional", "x": 0.7612, "y": 0.4621, "name": "Shreveport Regional Airport", "city": "Shreveport", "state": "Louisiana", "country": "United States", "lat": 32.4549, "lon": -93.8285}, {"old_name": "Abilene Regional", "x": 0.7314, "y": 0.4624, "name": "Abilene Regional Airport", "city": "Abilene", "state": "Texas", "country": "United States", "lat": 32.4164, "lon": -99.6803}, {"old_name": "Gregg County", "x": 0.7567, "y": 0.4626, "name": "Gregg County Airport", "city": "Longview", "state": "Texas", "country": "United States", "lat": 32.3874, "lon": -94.7194}, {"old_name": "Tyler Pounds Field", "x": 0.7532, "y": 0.4629, "name": "Tyler Pounds Field Airport", "city": "Tyler", "state": "Texas", "country": "United States", "lat": 32.3506, "lon": -95.4118}, {"old_name": "Jackson International", "x": 0.7803, "y": 0.4634, "name": "Jackson International Airport", "city": "Pearl", "state": "Mississippi", "country": "United States", "lat": 32.3089, "lon": -90.0733}, {"old_name": "Dannelly Field", "x": 0.7991, "y": 0.4635, "name": "Montgomery Regional Airport", "city": "Montgomery", "state": "Alabama", "country": "United States", "lat": 32.3049, "lon": -86.3909}, {"old_name": "Savannah International", "x": 0.8255, "y": 0.4651, "name": "Savannah International Airport", "city": "Savannah", "state": "Georgia", "country": "United States", "lat": 32.1338, "lon": -81.2133}, {"old_name": "Tucson International", "x": 0.6741, "y": 0.4652, "name": "Tucson International Airport", "city": "Tucson", "state": "Arizona", "country": "United States", "lat": 32.1204, "lon": -110.936}, {"old_name": "Midland International", "x": 0.7186, "y": 0.4669, "name": "Midland International Airport", "city": "Midland", "state": "Texas", "country": "United States", "lat": 31.9361, "lon": -102.208}, {"old_name": "El Paso International", "x": 0.6973, "y": 0.4682, "name": "El Paso International Airport", "city": "El Paso", "state": "Texas", "country": "United States", "lat": 31.7982, "lon": -106.393}, {"old_name": "Waco Regional", "x": 0.7439, "y": 0.47, "name": "Waco Regional Airport", "city": "Waco", "state": "Texas", "country": "United States", "lat": 31.609, "lon": -97.2234}, {"old_name": "Alexandria Esler Regional", "x": 0.769, "y": 0.4721, "name": "Esler Regional Airport", "city": "Alexandria", "state": "Louisiana", "country": "United States", "lat": 31.39489937, "lon": -92.29579926}, {"old_name": "Mathis Field", "x": 0.7273, "y": 0.4725, "name": "Mathis Field Airport", "city": "San Angelo", "state": "Texas", "country": "United States", "lat": 31.3616, "lon": -100.507}, {"old_name": "Killeen Muni", "x": 0.7416, "y": 0.4751, "name": "Killeen-Fort Hood Regional Airport", "city": "Killeen", "state": "Texas", "country": "United States", "lat": 31.0615, "lon": -97.8206}, {"old_name": "Mobile Regional", "x": 0.7897, "y": 0.4788, "name": "Mobile Regional Airport", "city": "Mobile", "state": "Alabama", "country": "United States", "lat": 30.6775, "lon": -88.243}, {"old_name": "Easterwood Field", "x": 0.7483, "y": 0.4798, "name": "Easterwood Field Airport", "city": "College Station", "state": "Texas", "country": "United States", "lat": 30.5938, "lon": -96.3685}, {"old_name": "Baton Rouge Metropolitan, Ryan", "x": 0.7749, "y": 0.4803, "name": "Baton Rouge Metropolitan Airport", "city": "Baton Rouge", "state": "Louisiana", "country": "United States", "lat": 30.533, "lon": -91.1567}, {"old_name": "Jacksonville International", "x": 0.8231, "y": 0.4807, "name": "Jacksonville International Airport", "city": "Jacksonville", "state": "Florida", "country": "United States", "lat": 30.4914, "lon": -81.676}, {"old_name": "Eglin Afb", "x": 0.7984, "y": 0.4808, "name": "Eglin Air Force Base", "city": "Eglin Village", "state": "Florida", "country": "United States", "lat": 30.496, "lon": -86.55}, {"old_name": "Pensacola Regional", "x": 0.7951, "y": 0.4809, "name": "Pensacola Regional Airport", "city": "Pensacola", "state": "Florida", "country": "United States", "lat": 30.4761, "lon": -87.1941}, {"old_name": "Tallahassee Regional", "x": 0.8095, "y": 0.4816, "name": "Tallahassee Regional Airport", "city": "Tallahassee", "state": "Florida", "country": "United States", "lat": 30.3964, "lon": -84.3503}, {"old_name": "Robert Mueller Municipal Airport", "x": 0.7415, "y": 0.4826, "name": "Robert Mueller Municipal Airport", "city": "Austin", "state": "Texas", "country": "United States", "lat": 30.3, "lon": -97.7}, {"old_name": "Panama City-Bay Co International", "x": 0.8027, "y": 0.4834, "name": "Panama City Bay County Airport", "city": "Panama City", "state": "Florida", "country": "United States", "lat": 30.2071, "lon": -85.6829}, {"old_name": "Lafayette Regional", "x": 0.7706, "y": 0.4835, "name": "Lafayette Regional Airport", "city": "Lafayette", "state": "Louisiana", "country": "United States", "lat": 30.2084, "lon": -91.9935}, {"old_name": "Lake Charles Regional", "x": 0.7643, "y": 0.4842, "name": "Lake Charles Regional Airport", "city": "Lake Charles", "state": "Louisiana", "country": "United States", "lat": 30.1235, "lon": -93.2198}, {"old_name": "New Orleans Intl/Moisant Fld/", "x": 0.7794, "y": 0.4855, "name": "New Orleans International Airport", "city": "Kenner", "state": "Louisiana", "country": "United States", "lat": 29.983, "lon": -90.2569}, {"old_name": "Houston Intercontinental", "x": 0.7535, "y": 0.4856, "name": "George Bush Intercontinental Airport", "city": "Houston", "state": "Texas", "country": "United States", "lat": 29.9784, "lon": -95.3424}, {"old_name": "Jefferson County", "x": 0.7602, "y": 0.4859, "name": "Jefferson County Airport", "city": "Beaumont", "state": "Texas", "country": "United States", "lat": 29.9551, "lon": -94.0185}, {"old_name": "Gainesville Regional", "x": 0.8201, "y": 0.4884, "name": "Gainesville Regional Airport", "city": "Gainesville", "state": "Florida", "country": "United States", "lat": 29.6861, "lon": -82.277}, {"old_name": "William P Hobby", "x": 0.7538, "y": 0.4888, "name": "William P Hobby Airport", "city": "Houston", "state": "Texas", "country": "United States", "lat": 29.6572, "lon": -95.2795}, {"old_name": "San Antonio International", "x": 0.7376, "y": 0.4899, "name": "San Antonio International Airport", "city": "San Antonio", "state": "Texas", "country": "United States", "lat": 29.5252, "lon": -98.4729}, {"old_name": "Daytona Beach International", "x": 0.8263, "y": 0.4933, "name": "Daytona Beach International Airport", "city": "Daytona Beach", "state": "Florida", "country": "United States", "lat": 29.1874, "lon": -81.0615}, {"old_name": "Orlando International", "x": 0.825, "y": 0.5004, "name": "Orlando International Airport", "city": "Orlando", "state": "Florida", "country": "United States", "lat": 28.4418, "lon": -81.3115}, {"old_name": "Melbourne International", "x": 0.8284, "y": 0.5036, "name": "Melbourne International Airport", "city": "Melbourne", "state": "Florida", "country": "United States", "lat": 28.0957, "lon": -80.6282}, {"old_name": "Tampa International", "x": 0.8188, "y": 0.5048, "name": "Tampa International Airport", "city": "Tampa", "state": "Florida", "country": "United States", "lat": 27.9744, "lon": -82.5356}, {"old_name": "St Petersburg/Clearwater International", "x": 0.818, "y": 0.5054, "name": "St. Petersburg-Clearwater International Airport", "city": "Clearwater", "state": "Florida", "country": "United States", "lat": 27.9065, "lon": -82.6924}, {"old_name": "Corpus Christi International", "x": 0.7425, "y": 0.5067, "name": "Corpus Christi International Airport", "city": "Corpus Christi", "state": "Texas", "country": "United States", "lat": 27.7747, "lon": -97.5019}, {"old_name": "Laredo International", "x": 0.7325, "y": 0.5089, "name": "Laredo International Airport", "city": "Laredo", "state": "Texas", "country": "United States", "lat": 27.5431, "lon": -99.4555}, {"old_name": "Sarasota/Bradenton International", "x": 0.8186, "y": 0.5103, "name": "Sarasota Bradenton Airport", "city": "Sarasota", "state": "Florida", "country": "United States", "lat": 27.3868, "lon": -82.5516}, {"old_name": "Palm Beach International", "x": 0.8312, "y": 0.5171, "name": "Palm Beach International Airport", "city": "West Palm Beach", "state": "Florida", "country": "United States", "lat": 26.6909, "lon": -80.0889}, {"old_name": "Southwest Florida International", "x": 0.8227, "y": 0.5185, "name": "Southwest Florida International Airport", "city": "Fort Myers", "state": "Florida", "country": "United States", "lat": 26.5228, "lon": -81.7531}, {"old_name": "Rio Grande Valley International", "x": 0.7417, "y": 0.5215, "name": "Grande Valley International Airport", "city": "Harlingen", "state": "Texas", "country": "United States", "lat": 26.2216, "lon": -97.663}, {"old_name": "Mc Allen Miller International", "x": 0.7388, "y": 0.522, "name": "Miller International Airport", "city": "Mcallen", "state": "Texas", "country": "United States", "lat": 26.1813, "lon": -98.2404}, {"old_name": "Fort Lauderdale/Hollywood International", "x": 0.8309, "y": 0.523, "name": "Fort Lauderdale Hollywood International Airport", "city": "Dania Beach", "state": "Florida", "country": "United States", "lat": 26.0722, "lon": -80.1354}, {"old_name": "Miami International", "x": 0.8302, "y": 0.5256, "name": "Miami International Airport", "city": "Miami", "state": "Florida", "country": "United States", "lat": 25.7953, "lon": -80.2727}, {"old_name": "Lihue", "x": 0.4276, "y": 0.5621, "name": "Lihue Airport", "city": "Lihue", "state": "Hawaii", "country": "United States", "lat": 21.9782, "lon": -159.351}, {"old_name": "Honolulu International", "x": 0.4348, "y": 0.5684, "name": "Honolulu International Airport", "city": "Honolulu", "state": "Hawaii", "country": "United States", "lat": 21.3358, "lon": -157.919}, {"old_name": "Molokai", "x": 0.439, "y": 0.57, "name": "Molokai Airport", "city": "Hoolehua", "state": "Hawaii", "country": "United States", "lat": 21.1557, "lon": -157.094}, {"old_name": "Kapalua", "x": 0.4412, "y": 0.5718, "name": "Kapalua West Maui Airport", "city": "Lahaina", "state": "Hawaii", "country": "United States", "lat": 20.9619, "lon": -156.676}, {"old_name": "Kahului", "x": 0.4424, "y": 0.5724, "name": "Kahului Airport", "city": "Kahului", "state": "Hawaii", "country": "United States", "lat": 20.8926, "lon": -156.441}, {"old_name": "Lanai", "x": 0.4398, "y": 0.5735, "name": "Lanai Airport", "city": "Lanai City", "state": "Hawaii", "country": "United States", "lat": 20.7909, "lon": -156.951}, {"old_name": "Keahole-Kona International", "x": 0.4444, "y": 0.5835, "name": "Kailua-Kona International Airport", "city": "Kailua Kona", "state": "Hawaii", "country": "United States", "lat": 19.7334, "lon": -156.039}, {"old_name": "Hilo International", "x": 0.4495, "y": 0.5837, "name": "Hilo International Airport", "city": "Hilo", "state": "Hawaii", "country": "United States", "lat": 19.7126, "lon": -155.042}, {"old_name": "Rafael Hernandez", "x": 0.8972, "y": 0.5954, "name": "Rafael Hernandez Airport", "city": "Aguadilla", "state": "Puerto Rico", "country": "United States", "lat": 18.496, "lon": -67.1357}, {"old_name": "Luis Munoz Marin International", "x": 0.9029, "y": 0.5959, "name": "Luis Munoz Marin Airport", "city": "Carolina", "state": "Puerto Rico", "country": "United States", "lat": 18.4367, "lon": -66.0095}, {"old_name": "Cyril E King", "x": 0.9082, "y": 0.5969, "name": "Cyril E King International Airport", "city": "Charlotte Amalie", "state": "US Virgin Islands", "country": "United States", "lat": 18.3333, "lon": -64.9667}, {"old_name": "Eugenio Maria De Hostos", "x": 0.8971, "y": 0.5977, "name": "Eugenio Maria de Hostos Airport", "city": "Mayaguez", "state": "Puerto Rico", "country": "United States", "lat": 18.2531, "lon": -67.1489}, {"old_name": "Mercedita", "x": 0.9001, "y": 0.6, "name": "Mercedita Airport", "city": "Coto Laurel", "state": "Puerto Rico", "country": "United States", "lat": 18.0116, "lon": -66.5664}, {"old_name": "Alexander Hamilton", "x": 0.9091, "y": 0.6029, "name": "Henry E Rohlson International Airport", "city": "Frederiksted", "state": "US Virgin Islands", "country": "United States", "lat": 17.6988, "lon": -64.7977}, {"old_name": "Johnston Atoll", "x": 0.3757, "y": 0.6122, "name": "Johnston Atoll Airport", "city": "Johnston Island", "state": "Hawaii", "country": "United States", "lat": 16.72859955, "lon": -169.5339966}, {"old_name": "Saipan International", "x": 0.1479, "y": 0.6276, "name": "Saipan International Airport", "city": "Saipan", "state": "Northern Mariana Islands", "country": "United States", "lat": 15.1333, "lon": 145.717}, {"old_name": "Rota International", "x": 0.1454, "y": 0.6366, "name": "Rota International Airport", "city": "Rota", "state": "Northern Mariana Islands", "country": "United States", "lat": 14.1667, "lon": 145.25}, {"old_name": "Guam International", "x": 0.1431, "y": 0.6432, "name": "Antonio B Won Pat International Airport", "city": "Hag\u221a\u2022t\u221a\u00b1a", "state": "Guam", "country": "United States", "lat": 13.4833, "lon": 144.796}, {"old_name": "Babelthuap/Koror", "x": 0.0909, "y": 0.7017, "name": "Koror Airport", "city": "Koror", "state": "Koror", "country": "Palau", "lat": 7.35743, "lon": 134.547}, {"old_name": "Pago Pago International", "x": 0.3697, "y": 0.909, "name": "Pago Pago International Airport", "city": "Pago Pago", "state": "American Samoa", "country": "United States", "lat": -14.3242, "lon": -170.706}, {"old_name": "West Tinian", "x": 0.1473, "y": 0.6288, "name": "Tinian", "city": "Tinian", "state": "Veneto", "country": "Northern Mariana Islands", "lat": 45.0039, "lon": 12.2686}], "links": [{"source": 118, "target": 201, "weight": 0.1804}, {"source": 118, "target": 258, "weight": 0.1474}, {"source": 118, "target": 182, "weight": 0.0332}, {"source": 118, "target": 152, "weight": 0.0416}, {"source": 118, "target": 162, "weight": 0.0676}, {"source": 47, "target": 118, "weight": 0.1828}, {"source": 118, "target": 144, "weight": 0.1231}, {"source": 118, "target": 263, "weight": 0.1733}, {"source": 118, "target": 301, "weight": 0.1366}, {"source": 118, "target": 221, "weight": 0.0745}, {"source": 118, "target": 321, "weight": 0.251}, {"source": 118, "target": 203, "weight": 0.1788}, {"source": 65, "target": 118, "weight": 0.18}, {"source": 118, "target": 306, "weight": 0.1514}, {"source": 118, "target": 297, "weight": 0.1305}, {"source": 118, "target": 253, "weight": 0.172}, {"source": 118, "target": 183, "weight": 0.1744}, {"source": 118, "target": 307, "weight": 0.1508}, {"source": 118, "target": 169, "weight": 0.164}, {"source": 118, "target": 216, "weight": 0.0686}, {"source": 118, "target": 212, "weight": 0.0769}, {"source": 118, "target": 274, "weight": 0.1504}, {"source": 92, "target": 118, "weight": 0.0611}, {"source": 68, "target": 118, "weight": 0.1008}, {"source": 91, "target": 118, "weight": 0.0532}, {"source": 118, "target": 125, "weight": 0.0839}, {"source": 118, "target": 189, "weight": 0.0379}, {"source": 118, "target": 305, "weight": 0.1419}, {"source": 118, "target": 202, "weight": 0.0688}, {"source": 118, "target": 222, "weight": 0.0622}, {"source": 80, "target": 118, "weight": 0.091}, {"source": 118, "target": 273, "weight": 0.1001}, {"source": 118, "target": 250, "weight": 0.1652}, {"source": 118, "target": 126, "weight": 0.0085}, {"source": 118, "target": 204, "weight": 0.06}, {"source": 118, "target": 127, "weight": 0.0212}, {"source": 118, "target": 186, "weight": 0.0471}, {"source": 118, "target": 148, "weight": 0.0155}, {"source": 118, "target": 129, "weight": 0.0704}, {"source": 76, "target": 118, "weight": 0.0797}, {"source": 78, "target": 118, "weight": 0.0298}, {"source": 118, "target": 163, "weight": 0.0223}, {"source": 70, "target": 118, "weight": 0.0289}, {"source": 114, "target": 118, "weight": 0.0065}, {"source": 77, "target": 118, "weight": 0.0195}, {"source": 118, "target": 261, "weight": 0.0985}, {"source": 248, "target": 261, "weight": 0.1093}, {"source": 201, "target": 261, "weight": 0.1367}, {"source": 150, "target": 261, "weight": 0.1396}, {"source": 261, "target": 311, "weight": 0.109}, {"source": 146, "target": 261, "weight": 0.14}, {"source": 147, "target": 261, "weight": 0.1383}, {"source": 258, "target": 261, "weight": 0.0765}, {"source": 112, "target": 261, "weight": 0.1131}, {"source": 261, "target": 313, "weight": 0.3292}, {"source": 182, "target": 261, "weight": 0.0655}, {"source": 67, "target": 261, "weight": 0.1162}, {"source": 219, "target": 261, "weight": 0.0972}, {"source": 261, "target": 299, "weight": 0.0907}, {"source": 152, "target": 261, "weight": 0.1122}, {"source": 261, "target": 293, "weight": 0.0291}, {"source": 162, "target": 261, "weight": 0.1295}, {"source": 47, "target": 261, "weight": 0.1894}, {"source": 144, "target": 261, "weight": 0.1071}, {"source": 261, "target": 263, "weight": 0.1026}, {"source": 261, "target": 301, "weight": 0.0876}, {"source": 177, "target": 261, "weight": 0.1152}, {"source": 221, "target": 261, "weight": 0.0972}, {"source": 261, "target": 310, "weight": 0.1079}, {"source": 232, "target": 261, "weight": 0.0414}, {"source": 261, "target": 321, "weight": 0.2098}, {"source": 261, "target": 296, "weight": 0.0323}, {"source": 123, "target": 261, "weight": 0.0973}, {"source": 172, "target": 261, "weight": 0.0623}, {"source": 261, "target": 292, "weight": 0.0442}, {"source": 203, "target": 261, "weight": 0.1338}, {"source": 65, "target": 261, "weight": 0.1779}, {"source": 167, "target": 261, "weight": 0.0851}, {"source": 261, "target": 306, "weight": 0.1047}, {"source": 197, "target": 261, "weight": 0.1363}, {"source": 261, "target": 297, "weight": 0.0329}, {"source": 246, "target": 261, "weight": 0.1053}, {"source": 253, "target": 261, "weight": 0.1064}, {"source": 94, "target": 261, "weight": 0.1068}, {"source": 183, "target": 261, "weight": 0.1369}, {"source": 261, "target": 307, "weight": 0.0987}, {"source": 261, "target": 276, "weight": 0.0487}, {"source": 225, "target": 261, "weight": 0.0241}, {"source": 169, "target": 261, "weight": 0.1319}, {"source": 216, "target": 261, "weight": 0.0321}, {"source": 261, "target": 284, "weight": 0.0815}, {"source": 212, "target": 261, "weight": 0.1128}, {"source": 261, "target": 274, "weight": 0.0712}, {"source": 189, "target": 261, "weight": 0.0765}, {"source": 133, "target": 261, "weight": 0.0806}, {"source": 239, "target": 261, "weight": 0.0302}, {"source": 202, "target": 261, "weight": 0.1097}, {"source": 218, "target": 261, "weight": 0.0923}, {"source": 128, "target": 261, "weight": 0.0844}, {"source": 251, "target": 261, "weight": 0.1079}, {"source": 254, "target": 261, "weight": 0.0255}, {"source": 261, "target": 275, "weight": 0.0278}, {"source": 198, "target": 261, "weight": 0.0455}, {"source": 222, "target": 261, "weight": 0.072}, {"source": 261, "target": 308, "weight": 0.0638}, {"source": 261, "target": 273, "weight": 0.0809}, {"source": 240, "target": 261, "weight": 0.0549}, {"source": 213, "target": 261, "weight": 0.1213}, {"source": 250, "target": 261, "weight": 0.0996}, {"source": 261, "target": 286, "weight": 0.0553}, {"source": 261, "target": 271, "weight": 0.0358}, {"source": 261, "target": 281, "weight": 0.0495}, {"source": 261, "target": 267, "weight": 0.0169}, {"source": 242, "target": 261, "weight": 0.117}, {"source": 261, "target": 309, "weight": 0.0645}, {"source": 206, "target": 261, "weight": 0.0456}, {"source": 81, "target": 261, "weight": 0.1239}, {"source": 220, "target": 261, "weight": 0.0331}, {"source": 261, "target": 290, "weight": 0.0363}, {"source": 261, "target": 266, "weight": 0.0257}, {"source": 226, "target": 261, "weight": 0.0271}, {"source": 261, "target": 270, "weight": 0.0097}, {"source": 142, "target": 261, "weight": 0.1219}, {"source": 241, "target": 261, "weight": 0.0175}, {"source": 261, "target": 278, "weight": 0.028}, {"source": 261, "target": 279, "weight": 0.0229}, {"source": 261, "target": 291, "weight": 0.0328}, {"source": 247, "target": 261, "weight": 0.0128}, {"source": 261, "target": 304, "weight": 0.0526}, {"source": 184, "target": 261, "weight": 0.0738}, {"source": 261, "target": 280, "weight": 0.0176}, {"source": 153, "target": 261, "weight": 0.0892}, {"source": 257, "target": 261, "weight": 0.0164}, {"source": 261, "target": 269, "weight": 0.0127}, {"source": 168, "target": 261, "weight": 0.0818}, {"source": 118, "target": 255, "weight": 0.0815}, {"source": 255, "target": 261, "weight": 0.0646}, {"source": 248, "target": 255, "weight": 0.173}, {"source": 201, "target": 255, "weight": 0.1969}, {"source": 150, "target": 255, "weight": 0.086}, {"source": 166, "target": 255, "weight": 0.1195}, {"source": 255, "target": 311, "weight": 0.0779}, {"source": 146, "target": 255, "weight": 0.0868}, {"source": 109, "target": 255, "weight": 0.1078}, {"source": 147, "target": 255, "weight": 0.0852}, {"source": 255, "target": 258, "weight": 0.1405}, {"source": 112, "target": 255, "weight": 0.0821}, {"source": 255, "target": 313, "weight": 0.3924}, {"source": 182, "target": 255, "weight": 0.0574}, {"source": 67, "target": 255, "weight": 0.1163}, {"source": 219, "target": 255, "weight": 0.1582}, {"source": 255, "target": 299, "weight": 0.0523}, {"source": 152, "target": 255, "weight": 0.0688}, {"source": 255, "target": 293, "weight": 0.0657}, {"source": 162, "target": 255, "weight": 0.0757}, {"source": 47, "target": 255, "weight": 0.2336}, {"source": 230, "target": 255, "weight": 0.0232}, {"source": 179, "target": 255, "weight": 0.0624}, {"source": 144, "target": 255, "weight": 0.156}, {"source": 255, "target": 263, "weight": 0.167}, {"source": 255, "target": 301, "weight": 0.0551}, {"source": 174, "target": 255, "weight": 0.0659}, {"source": 177, "target": 255, "weight": 0.0618}, {"source": 221, "target": 255, "weight": 0.0357}, {"source": 176, "target": 255, "weight": 0.0516}, {"source": 255, "target": 310, "weight": 0.0756}, {"source": 232, "target": 255, "weight": 0.0313}, {"source": 131, "target": 255, "weight": 0.0753}, {"source": 255, "target": 321, "weight": 0.1729}, {"source": 255, "target": 296, "weight": 0.0672}, {"source": 123, "target": 255, "weight": 0.0796}, {"source": 217, "target": 255, "weight": 0.0263}, {"source": 172, "target": 255, "weight": 0.0752}, {"source": 255, "target": 292, "weight": 0.0458}, {"source": 65, "target": 255, "weight": 0.2254}, {"source": 167, "target": 255, "weight": 0.0588}, {"source": 255, "target": 306, "weight": 0.0701}, {"source": 255, "target": 297, "weight": 0.0816}, {"source": 246, "target": 255, "weight": 0.1689}, {"source": 119, "target": 255, "weight": 0.0992}, {"source": 253, "target": 255, "weight": 0.1703}, {"source": 94, "target": 255, "weight": 0.0906}, {"source": 255, "target": 288, "weight": 0.0748}, {"source": 161, "target": 255, "weight": 0.0598}, {"source": 159, "target": 255, "weight": 0.0612}, {"source": 255, "target": 307, "weight": 0.0692}, {"source": 95, "target": 255, "weight": 0.0934}, {"source": 255, "target": 276, "weight": 0.1132}, {"source": 225, "target": 255, "weight": 0.0691}, {"source": 216, "target": 255, "weight": 0.0633}, {"source": 255, "target": 284, "weight": 0.0332}, {"source": 212, "target": 255, "weight": 0.0521}, {"source": 92, "target": 255, "weight": 0.0998}, {"source": 91, "target": 255, "weight": 0.0968}, {"source": 125, "target": 255, "weight": 0.1017}, {"source": 255, "target": 256, "weight": 0.0118}, {"source": 189, "target": 255, "weight": 0.0438}, {"source": 133, "target": 255, "weight": 0.0936}, {"source": 255, "target": 305, "weight": 0.0605}, {"source": 239, "target": 255, "weight": 0.041}, {"source": 202, "target": 255, "weight": 0.0517}, {"source": 218, "target": 255, "weight": 0.0327}, {"source": 255, "target": 260, "weight": 0.0234}, {"source": 157, "target": 255, "weight": 0.0738}, {"source": 237, "target": 255, "weight": 0.0165}, {"source": 222, "target": 255, "weight": 0.0208}, {"source": 255, "target": 322, "weight": 0.1767}, {"source": 249, "target": 255, "weight": 0.0171}, {"source": 255, "target": 273, "weight": 0.0219}, {"source": 255, "target": 298, "weight": 0.046}, {"source": 240, "target": 255, "weight": 0.0152}, {"source": 255, "target": 287, "weight": 0.031}, {"source": 255, "target": 283, "weight": 0.0453}, {"source": 255, "target": 286, "weight": 0.0334}, {"source": 255, "target": 271, "weight": 0.0315}, {"source": 192, "target": 255, "weight": 0.042}, {"source": 255, "target": 281, "weight": 0.0342}, {"source": 255, "target": 300, "weight": 0.0564}, {"source": 137, "target": 255, "weight": 0.0702}, {"source": 255, "target": 267, "weight": 0.0493}, {"source": 127, "target": 255, "weight": 0.076}, {"source": 234, "target": 255, "weight": 0.0139}, {"source": 223, "target": 255, "weight": 0.0196}, {"source": 132, "target": 255, "weight": 0.0858}, {"source": 255, "target": 295, "weight": 0.0394}, {"source": 215, "target": 255, "weight": 0.0289}, {"source": 255, "target": 272, "weight": 0.0163}, {"source": 129, "target": 255, "weight": 0.0917}, {"source": 255, "target": 265, "weight": 0.0111}, {"source": 255, "target": 266, "weight": 0.0403}, {"source": 255, "target": 289, "weight": 0.0334}, {"source": 184, "target": 255, "weight": 0.1237}, {"source": 118, "target": 248, "weight": 0.1733}, {"source": 201, "target": 248, "weight": 0.0406}, {"source": 248, "target": 311, "weight": 0.2091}, {"source": 248, "target": 258, "weight": 0.0329}, {"source": 182, "target": 248, "weight": 0.15}, {"source": 67, "target": 248, "weight": 0.1655}, {"source": 248, "target": 299, "weight": 0.1961}, {"source": 152, "target": 248, "weight": 0.2042}, {"source": 162, "target": 248, "weight": 0.227}, {"source": 47, "target": 248, "weight": 0.1305}, {"source": 144, "target": 248, "weight": 0.0731}, {"source": 248, "target": 263, "weight": 0.0131}, {"source": 248, "target": 301, "weight": 0.1914}, {"source": 232, "target": 248, "weight": 0.1451}, {"source": 172, "target": 248, "weight": 0.131}, {"source": 248, "target": 292, "weight": 0.1482}, {"source": 203, "target": 248, "weight": 0.0373}, {"source": 65, "target": 248, "weight": 0.1133}, {"source": 197, "target": 248, "weight": 0.041}, {"source": 248, "target": 253, "weight": 0.0037}, {"source": 248, "target": 316, "weight": 0.2303}, {"source": 94, "target": 248, "weight": 0.1776}, {"source": 183, "target": 248, "weight": 0.0483}, {"source": 245, "target": 248, "weight": 0.0025}, {"source": 169, "target": 248, "weight": 0.0536}, {"source": 248, "target": 274, "weight": 0.0418}, {"source": 248, "target": 250, "weight": 0.0097}, {"source": 242, "target": 248, "weight": 0.0087}, {"source": 214, "target": 248, "weight": 0.0308}, {"source": 248, "target": 331, "weight": 0.5326}, {"source": 244, "target": 248, "weight": 0.0048}, {"source": 168, "target": 248, "weight": 0.08}, {"source": 182, "target": 201, "weight": 0.1634}, {"source": 144, "target": 201, "weight": 0.0609}, {"source": 201, "target": 203, "weight": 0.0033}, {"source": 197, "target": 201, "weight": 0.0011}, {"source": 201, "target": 253, "weight": 0.0441}, {"source": 183, "target": 201, "weight": 0.011}, {"source": 178, "target": 201, "weight": 0.0171}, {"source": 185, "target": 201, "weight": 0.0088}, {"source": 201, "target": 236, "weight": 0.0278}, {"source": 118, "target": 150, "weight": 0.073}, {"source": 150, "target": 248, "weight": 0.236}, {"source": 150, "target": 201, "weight": 0.2491}, {"source": 150, "target": 311, "weight": 0.1456}, {"source": 146, "target": 150, "weight": 0.0014}, {"source": 150, "target": 258, "weight": 0.2065}, {"source": 150, "target": 182, "weight": 0.0863}, {"source": 67, "target": 150, "weight": 0.1069}, {"source": 150, "target": 219, "weight": 0.2151}, {"source": 150, "target": 299, "weight": 0.1227}, {"source": 150, "target": 152, "weight": 0.0328}, {"source": 150, "target": 162, "weight": 0.0104}, {"source": 47, "target": 150, "weight": 0.2555}, {"source": 144, "target": 150, "weight": 0.1945}, {"source": 150, "target": 263, "weight": 0.2335}, {"source": 150, "target": 301, "weight": 0.1289}, {"source": 150, "target": 221, "weight": 0.0522}, {"source": 150, "target": 321, "weight": 0.2158}, {"source": 150, "target": 292, "weight": 0.1318}, {"source": 150, "target": 306, "weight": 0.1371}, {"source": 150, "target": 212, "weight": 0.0379}, {"source": 92, "target": 150, "weight": 0.0264}, {"source": 91, "target": 150, "weight": 0.0309}, {"source": 150, "target": 202, "weight": 0.0349}, {"source": 150, "target": 322, "weight": 0.2178}, {"source": 150, "target": 324, "weight": 0.2193}, {"source": 118, "target": 166, "weight": 0.089}, {"source": 166, "target": 261, "weight": 0.077}, {"source": 166, "target": 248, "weight": 0.0886}, {"source": 166, "target": 201, "weight": 0.0914}, {"source": 150, "target": 166, "weight": 0.1586}, {"source": 166, "target": 311, "weight": 0.1832}, {"source": 146, "target": 166, "weight": 0.1583}, {"source": 147, "target": 166, "weight": 0.1567}, {"source": 166, "target": 258, "weight": 0.0706}, {"source": 112, "target": 166, "weight": 0.1121}, {"source": 166, "target": 313, "weight": 0.3226}, {"source": 166, "target": 182, "weight": 0.0746}, {"source": 67, "target": 166, "weight": 0.077}, {"source": 166, "target": 219, "weight": 0.0631}, {"source": 166, "target": 299, "weight": 0.1618}, {"source": 152, "target": 166, "weight": 0.1258}, {"source": 166, "target": 293, "weight": 0.1055}, {"source": 162, "target": 166, "weight": 0.151}, {"source": 47, "target": 166, "weight": 0.115}, {"source": 144, "target": 166, "weight": 0.0374}, {"source": 166, "target": 263, "weight": 0.0919}, {"source": 166, "target": 301, "weight": 0.1603}, {"source": 166, "target": 177, "weight": 0.1399}, {"source": 166, "target": 232, "weight": 0.0883}, {"source": 166, "target": 296, "weight": 0.1085}, {"source": 123, "target": 166, "weight": 0.0894}, {"source": 166, "target": 172, "weight": 0.052}, {"source": 166, "target": 292, "weight": 0.1196}, {"source": 166, "target": 203, "weight": 0.0898}, {"source": 65, "target": 166, "weight": 0.1059}, {"source": 166, "target": 167, "weight": 0.0947}, {"source": 166, "target": 197, "weight": 0.0905}, {"source": 166, "target": 297, "weight": 0.1032}, {"source": 166, "target": 246, "weight": 0.0847}, {"source": 166, "target": 253, "weight": 0.0881}, {"source": 94, "target": 166, "weight": 0.0917}, {"source": 166, "target": 183, "weight": 0.0857}, {"source": 166, "target": 276, "weight": 0.0766}, {"source": 166, "target": 225, "weight": 0.056}, {"source": 166, "target": 169, "weight": 0.0758}, {"source": 166, "target": 216, "weight": 0.0572}, {"source": 166, "target": 274, "weight": 0.0794}, {"source": 133, "target": 166, "weight": 0.0481}, {"source": 45, "target": 166, "weight": 0.0988}, {"source": 128, "target": 166, "weight": 0.0596}, {"source": 166, "target": 251, "weight": 0.0883}, {"source": 166, "target": 198, "weight": 0.0431}, {"source": 90, "target": 166, "weight": 0.0855}, {"source": 166, "target": 213, "weight": 0.0808}, {"source": 166, "target": 250, "weight": 0.0821}, {"source": 130, "target": 166, "weight": 0.0749}, {"source": 166, "target": 242, "weight": 0.0917}, {"source": 75, "target": 166, "weight": 0.1021}, {"source": 140, "target": 166, "weight": 0.0426}, {"source": 82, "target": 166, "weight": 0.0551}, {"source": 166, "target": 206, "weight": 0.0634}, {"source": 148, "target": 166, "weight": 0.0779}, {"source": 51, "target": 166, "weight": 0.0796}, {"source": 81, "target": 166, "weight": 0.0472}, {"source": 166, "target": 175, "weight": 0.0195}, {"source": 50, "target": 166, "weight": 0.0828}, {"source": 106, "target": 166, "weight": 0.05}, {"source": 41, "target": 166, "weight": 0.0831}, {"source": 142, "target": 166, "weight": 0.0564}, {"source": 166, "target": 184, "weight": 0.0158}, {"source": 153, "target": 166, "weight": 0.0137}, {"source": 166, "target": 168, "weight": 0.0104}, {"source": 118, "target": 311, "weight": 0.1594}, {"source": 201, "target": 311, "weight": 0.2423}, {"source": 182, "target": 311, "weight": 0.134}, {"source": 67, "target": 311, "weight": 0.1939}, {"source": 152, "target": 311, "weight": 0.1404}, {"source": 162, "target": 311, "weight": 0.1369}, {"source": 47, "target": 311, "weight": 0.2976}, {"source": 263, "target": 311, "weight": 0.1993}, {"source": 301, "target": 311, "weight": 0.0237}, {"source": 221, "target": 311, "weight": 0.0966}, {"source": 311, "target": 321, "weight": 0.1011}, {"source": 292, "target": 311, "weight": 0.0647}, {"source": 203, "target": 311, "weight": 0.2392}, {"source": 306, "target": 311, "weight": 0.0086}, {"source": 94, "target": 311, "weight": 0.1684}, {"source": 311, "target": 322, "weight": 0.1057}, {"source": 287, "target": 311, "weight": 0.0486}, {"source": 311, "target": 324, "weight": 0.1021}, {"source": 118, "target": 146, "weight": 0.0724}, {"source": 146, "target": 311, "weight": 0.1468}, {"source": 146, "target": 182, "weight": 0.0862}, {"source": 67, "target": 146, "weight": 0.1061}, {"source": 146, "target": 299, "weight": 0.1238}, {"source": 146, "target": 152, "weight": 0.0325}, {"source": 146, "target": 301, "weight": 0.13}, {"source": 146, "target": 221, "weight": 0.0531}, {"source": 146, "target": 232, "weight": 0.0987}, {"source": 123, "target": 146, "weight": 0.0714}, {"source": 146, "target": 172, "weight": 0.1071}, {"source": 146, "target": 292, "weight": 0.1326}, {"source": 146, "target": 306, "weight": 0.1383}, {"source": 119, "target": 146, "weight": 0.0126}, {"source": 94, "target": 146, "weight": 0.0745}, {"source": 146, "target": 307, "weight": 0.1418}, {"source": 146, "target": 212, "weight": 0.039}, {"source": 92, "target": 146, "weight": 0.025}, {"source": 91, "target": 146, "weight": 0.0296}, {"source": 146, "target": 189, "weight": 0.0654}, {"source": 146, "target": 202, "weight": 0.0358}, {"source": 80, "target": 146, "weight": 0.0329}, {"source": 146, "target": 168, "weight": 0.1686}, {"source": 109, "target": 118, "weight": 0.0862}, {"source": 109, "target": 261, "weight": 0.1605}, {"source": 109, "target": 248, "weight": 0.2545}, {"source": 109, "target": 201, "weight": 0.2655}, {"source": 109, "target": 150, "weight": 0.0218}, {"source": 109, "target": 166, "weight": 0.1744}, {"source": 109, "target": 311, "weight": 0.1652}, {"source": 109, "target": 146, "weight": 0.0211}, {"source": 109, "target": 147, "weight": 0.0227}, {"source": 109, "target": 258, "weight": 0.2256}, {"source": 109, "target": 112, "weight": 0.0629}, {"source": 109, "target": 182, "weight": 0.1045}, {"source": 67, "target": 109, "weight": 0.1156}, {"source": 109, "target": 219, "weight": 0.2328}, {"source": 109, "target": 299, "weight": 0.1431}, {"source": 109, "target": 152, "weight": 0.0503}, {"source": 109, "target": 293, "weight": 0.1714}, {"source": 109, "target": 162, "weight": 0.0321}, {"source": 47, "target": 109, "weight": 0.2658}, {"source": 109, "target": 230, "weight": 0.0851}, {"source": 109, "target": 179, "weight": 0.0455}, {"source": 109, "target": 144, "weight": 0.2092}, {"source": 109, "target": 301, "weight": 0.1495}, {"source": 109, "target": 174, "weight": 0.042}, {"source": 109, "target": 177, "weight": 0.0464}, {"source": 109, "target": 221, "weight": 0.0736}, {"source": 109, "target": 176, "weight": 0.0765}, {"source": 109, "target": 310, "weight": 0.1625}, {"source": 109, "target": 232, "weight": 0.1193}, {"source": 109, "target": 131, "weight": 0.056}, {"source": 109, "target": 321, "weight": 0.23}, {"source": 109, "target": 203, "weight": 0.2638}, {"source": 109, "target": 167, "weight": 0.0819}, {"source": 109, "target": 306, "weight": 0.1568}, {"source": 94, "target": 109, "weight": 0.0863}, {"source": 109, "target": 161, "weight": 0.0713}, {"source": 109, "target": 159, "weight": 0.0647}, {"source": 109, "target": 307, "weight": 0.1608}, {"source": 95, "target": 109, "weight": 0.0398}, {"source": 109, "target": 212, "weight": 0.0586}, {"source": 92, "target": 109, "weight": 0.027}, {"source": 91, "target": 109, "weight": 0.0348}, {"source": 109, "target": 202, "weight": 0.0565}, {"source": 80, "target": 109, "weight": 0.0128}, {"source": 109, "target": 273, "weight": 0.1108}, {"source": 118, "target": 147, "weight": 0.0711}, {"source": 147, "target": 248, "weight": 0.2344}, {"source": 147, "target": 201, "weight": 0.2472}, {"source": 147, "target": 150, "weight": 0.002}, {"source": 147, "target": 311, "weight": 0.1457}, {"source": 146, "target": 147, "weight": 0.0017}, {"source": 147, "target": 258, "weight": 0.2049}, {"source": 147, "target": 182, "weight": 0.0845}, {"source": 67, "target": 147, "weight": 0.105}, {"source": 147, "target": 219, "weight": 0.2134}, {"source": 147, "target": 299, "weight": 0.1226}, {"source": 147, "target": 152, "weight": 0.031}, {"source": 147, "target": 293, "weight": 0.1487}, {"source": 47, "target": 147, "weight": 0.2535}, {"source": 147, "target": 301, "weight": 0.1288}, {"source": 147, "target": 177, "weight": 0.0237}, {"source": 147, "target": 221, "weight": 0.0517}, {"source": 147, "target": 310, "weight": 0.143}, {"source": 147, "target": 232, "weight": 0.097}, {"source": 147, "target": 321, "weight": 0.2166}, {"source": 123, "target": 147, "weight": 0.07}, {"source": 147, "target": 172, "weight": 0.1055}, {"source": 147, "target": 292, "weight": 0.131}, {"source": 147, "target": 167, "weight": 0.0625}, {"source": 147, "target": 306, "weight": 0.1372}, {"source": 94, "target": 147, "weight": 0.0733}, {"source": 147, "target": 307, "weight": 0.1406}, {"source": 147, "target": 284, "weight": 0.1047}, {"source": 147, "target": 212, "weight": 0.0378}, {"source": 92, "target": 147, "weight": 0.0251}, {"source": 91, "target": 147, "weight": 0.0293}, {"source": 125, "target": 147, "weight": 0.0171}, {"source": 147, "target": 305, "weight": 0.134}, {"source": 147, "target": 202, "weight": 0.0344}, {"source": 147, "target": 218, "weight": 0.0528}, {"source": 99, "target": 147, "weight": 0.0616}, {"source": 147, "target": 322, "weight": 0.2187}, {"source": 80, "target": 147, "weight": 0.0344}, {"source": 143, "target": 147, "weight": 0.0055}, {"source": 147, "target": 273, "weight": 0.0893}, {"source": 96, "target": 147, "weight": 0.0255}, {"source": 147, "target": 300, "weight": 0.1247}, {"source": 147, "target": 153, "weight": 0.1684}, {"source": 147, "target": 324, "weight": 0.2201}, {"source": 201, "target": 258, "weight": 0.0662}, {"source": 182, "target": 258, "weight": 0.1214}, {"source": 152, "target": 258, "weight": 0.1754}, {"source": 47, "target": 258, "weight": 0.1437}, {"source": 144, "target": 258, "weight": 0.0702}, {"source": 258, "target": 263, "weight": 0.0271}, {"source": 203, "target": 258, "weight": 0.0629}, {"source": 258, "target": 297, "weight": 0.0784}, {"source": 253, "target": 258, "weight": 0.0299}, {"source": 183, "target": 258, "weight": 0.0701}, {"source": 169, "target": 258, "weight": 0.0701}, {"source": 216, "target": 258, "weight": 0.0862}, {"source": 258, "target": 274, "weight": 0.0137}, {"source": 250, "target": 258, "weight": 0.0232}, {"source": 258, "target": 264, "weight": 0.0151}, {"source": 112, "target": 118, "weight": 0.0233}, {"source": 112, "target": 248, "weight": 0.1952}, {"source": 112, "target": 201, "weight": 0.2035}, {"source": 112, "target": 150, "weight": 0.051}, {"source": 112, "target": 311, "weight": 0.1577}, {"source": 112, "target": 146, "weight": 0.0502}, {"source": 112, "target": 147, "weight": 0.049}, {"source": 112, "target": 258, "weight": 0.1684}, {"source": 112, "target": 182, "weight": 0.0487}, {"source": 67, "target": 112, "weight": 0.0563}, {"source": 112, "target": 219, "weight": 0.1723}, {"source": 112, "target": 299, "weight": 0.1321}, {"source": 112, "target": 152, "weight": 0.0229}, {"source": 112, "target": 293, "weight": 0.1319}, {"source": 112, "target": 162, "weight": 0.047}, {"source": 47, "target": 112, "weight": 0.2046}, {"source": 112, "target": 144, "weight": 0.1464}, {"source": 112, "target": 263, "weight": 0.1947}, {"source": 112, "target": 301, "weight": 0.1362}, {"source": 112, "target": 177, "weight": 0.0434}, {"source": 112, "target": 221, "weight": 0.0649}, {"source": 112, "target": 310, "weight": 0.1552}, {"source": 112, "target": 232, "weight": 0.0764}, {"source": 112, "target": 296, "weight": 0.1346}, {"source": 112, "target": 123, "weight": 0.0228}, {"source": 112, "target": 172, "weight": 0.0643}, {"source": 112, "target": 292, "weight": 0.122}, {"source": 112, "target": 203, "weight": 0.2019}, {"source": 65, "target": 112, "weight": 0.2025}, {"source": 112, "target": 167, "weight": 0.0282}, {"source": 112, "target": 306, "weight": 0.1493}, {"source": 112, "target": 253, "weight": 0.1938}, {"source": 94, "target": 112, "weight": 0.0242}, {"source": 112, "target": 307, "weight": 0.15}, {"source": 112, "target": 212, "weight": 0.0626}, {"source": 92, "target": 112, "weight": 0.0379}, {"source": 91, "target": 112, "weight": 0.0302}, {"source": 112, "target": 125, "weight": 0.0609}, {"source": 112, "target": 189, "weight": 0.0405}, {"source": 112, "target": 305, "weight": 0.1417}, {"source": 112, "target": 202, "weight": 0.0545}, {"source": 99, "target": 112, "weight": 0.0128}, {"source": 112, "target": 157, "weight": 0.0387}, {"source": 90, "target": 112, "weight": 0.0317}, {"source": 112, "target": 126, "weight": 0.0159}, {"source": 112, "target": 136, "weight": 0.0503}, {"source": 112, "target": 137, "weight": 0.0151}, {"source": 71, "target": 112, "weight": 0.0326}, {"source": 100, "target": 112, "weight": 0.0083}, {"source": 84, "target": 112, "weight": 0.0131}, {"source": 70, "target": 112, "weight": 0.0267}, {"source": 118, "target": 313, "weight": 0.4076}, {"source": 248, "target": 313, "weight": 0.2347}, {"source": 201, "target": 313, "weight": 0.2389}, {"source": 258, "target": 313, "weight": 0.2609}, {"source": 182, "target": 313, "weight": 0.3823}, {"source": 67, "target": 313, "weight": 0.3992}, {"source": 219, "target": 313, "weight": 0.2595}, {"source": 47, "target": 313, "weight": 0.3086}, {"source": 263, "target": 313, "weight": 0.2344}, {"source": 246, "target": 313, "weight": 0.2387}, {"source": 313, "target": 316, "weight": 0.0086}, {"source": 312, "target": 313, "weight": 0.0096}, {"source": 313, "target": 329, "weight": 0.3011}, {"source": 313, "target": 318, "weight": 0.0179}, {"source": 313, "target": 319, "weight": 0.0212}, {"source": 313, "target": 314, "weight": 0.0045}, {"source": 313, "target": 331, "weight": 0.3468}, {"source": 313, "target": 317, "weight": 0.0071}, {"source": 313, "target": 326, "weight": 0.0736}, {"source": 313, "target": 315, "weight": 0.0072}, {"source": 182, "target": 301, "weight": 0.1105}, {"source": 182, "target": 216, "weight": 0.0373}, {"source": 182, "target": 274, "weight": 0.1225}, {"source": 92, "target": 182, "weight": 0.0837}, {"source": 182, "target": 222, "weight": 0.0429}, {"source": 106, "target": 182, "weight": 0.0465}, {"source": 160, "target": 182, "weight": 0.0122}, {"source": 182, "target": 196, "weight": 0.0133}, {"source": 67, "target": 118, "weight": 0.0388}, {"source": 67, "target": 201, "weight": 0.1639}, {"source": 67, "target": 258, "weight": 0.1454}, {"source": 67, "target": 182, "weight": 0.0604}, {"source": 67, "target": 152, "weight": 0.0783}, {"source": 67, "target": 162, "weight": 0.1033}, {"source": 47, "target": 67, "weight": 0.1502}, {"source": 67, "target": 144, "weight": 0.1033}, {"source": 67, "target": 263, "weight": 0.1685}, {"source": 67, "target": 301, "weight": 0.1705}, {"source": 67, "target": 292, "weight": 0.1431}, {"source": 67, "target": 203, "weight": 0.163}, {"source": 65, "target": 67, "weight": 0.1498}, {"source": 67, "target": 197, "weight": 0.1629}, {"source": 67, "target": 246, "weight": 0.1617}, {"source": 67, "target": 253, "weight": 0.1651}, {"source": 67, "target": 183, "weight": 0.1562}, {"source": 67, "target": 307, "weight": 0.1847}, {"source": 67, "target": 274, "weight": 0.1518}, {"source": 67, "target": 189, "weight": 0.0745}, {"source": 67, "target": 133, "weight": 0.0368}, {"source": 67, "target": 76, "weight": 0.0508}, {"source": 67, "target": 78, "weight": 0.01}, {"source": 43, "target": 67, "weight": 0.0364}, {"source": 118, "target": 219, "weight": 0.1498}, {"source": 219, "target": 248, "weight": 0.0263}, {"source": 201, "target": 219, "weight": 0.0395}, {"source": 219, "target": 258, "weight": 0.0299}, {"source": 182, "target": 219, "weight": 0.1288}, {"source": 67, "target": 219, "weight": 0.1399}, {"source": 219, "target": 299, "weight": 0.1873}, {"source": 152, "target": 219, "weight": 0.1828}, {"source": 162, "target": 219, "weight": 0.2065}, {"source": 47, "target": 219, "weight": 0.1144}, {"source": 144, "target": 219, "weight": 0.0477}, {"source": 219, "target": 263, "weight": 0.0336}, {"source": 219, "target": 301, "weight": 0.1834}, {"source": 219, "target": 232, "weight": 0.1286}, {"source": 123, "target": 219, "weight": 0.1499}, {"source": 172, "target": 219, "weight": 0.1085}, {"source": 203, "target": 219, "weight": 0.0366}, {"source": 65, "target": 219, "weight": 0.0984}, {"source": 197, "target": 219, "weight": 0.0392}, {"source": 219, "target": 297, "weight": 0.1056}, {"source": 219, "target": 246, "weight": 0.023}, {"source": 219, "target": 253, "weight": 0.0268}, {"source": 94, "target": 219, "weight": 0.1535}, {"source": 183, "target": 219, "weight": 0.0412}, {"source": 169, "target": 219, "weight": 0.0402}, {"source": 219, "target": 274, "weight": 0.0436}, {"source": 133, "target": 219, "weight": 0.1101}, {"source": 219, "target": 250, "weight": 0.0227}, {"source": 118, "target": 299, "weight": 0.1337}, {"source": 201, "target": 299, "weight": 0.2268}, {"source": 299, "target": 311, "weight": 0.0257}, {"source": 258, "target": 299, "weight": 0.1635}, {"source": 182, "target": 299, "weight": 0.1088}, {"source": 67, "target": 299, "weight": 0.1685}, {"source": 152, "target": 299, "weight": 0.1153}, {"source": 162, "target": 299, "weight": 0.1136}, {"source": 144, "target": 299, "weight": 0.1958}, {"source": 299, "target": 301, "weight": 0.0076}, {"source": 221, "target": 299, "weight": 0.0722}, {"source": 232, "target": 299, "weight": 0.0771}, {"source": 299, "target": 321, "weight": 0.1232}, {"source": 123, "target": 299, "weight": 0.1317}, {"source": 292, "target": 299, "weight": 0.048}, {"source": 299, "target": 306, "weight": 0.0178}, {"source": 94, "target": 299, "weight": 0.1427}, {"source": 299, "target": 307, "weight": 0.0182}, {"source": 92, "target": 299, "weight": 0.1427}, {"source": 125, "target": 299, "weight": 0.1366}, {"source": 299, "target": 305, "weight": 0.0118}, {"source": 299, "target": 322, "weight": 0.1274}, {"source": 273, "target": 299, "weight": 0.0353}, {"source": 287, "target": 299, "weight": 0.0244}, {"source": 286, "target": 299, "weight": 0.0357}, {"source": 152, "target": 201, "weight": 0.2163}, {"source": 152, "target": 182, "weight": 0.0542}, {"source": 47, "target": 152, "weight": 0.2244}, {"source": 152, "target": 263, "weight": 0.2023}, {"source": 152, "target": 301, "weight": 0.1202}, {"source": 152, "target": 221, "weight": 0.0447}, {"source": 152, "target": 297, "weight": 0.14}, {"source": 152, "target": 183, "weight": 0.2114}, {"source": 152, "target": 307, "weight": 0.1335}, {"source": 92, "target": 152, "weight": 0.0326}, {"source": 91, "target": 152, "weight": 0.0283}, {"source": 125, "target": 152, "weight": 0.0463}, {"source": 152, "target": 189, "weight": 0.0357}, {"source": 152, "target": 305, "weight": 0.1257}, {"source": 152, "target": 202, "weight": 0.0321}, {"source": 152, "target": 222, "weight": 0.0486}, {"source": 80, "target": 152, "weight": 0.0588}, {"source": 126, "target": 152, "weight": 0.0331}, {"source": 127, "target": 152, "weight": 0.021}, {"source": 152, "target": 215, "weight": 0.04}, {"source": 129, "target": 152, "weight": 0.0327}, {"source": 152, "target": 156, "weight": 0.0277}, {"source": 118, "target": 293, "weight": 0.1207}, {"source": 248, "target": 293, "weight": 0.1233}, {"source": 201, "target": 293, "weight": 0.1558}, {"source": 293, "target": 311, "weight": 0.0865}, {"source": 146, "target": 293, "weight": 0.1503}, {"source": 258, "target": 293, "weight": 0.0911}, {"source": 182, "target": 293, "weight": 0.0876}, {"source": 67, "target": 293, "weight": 0.1428}, {"source": 219, "target": 293, "weight": 0.1165}, {"source": 293, "target": 299, "weight": 0.073}, {"source": 152, "target": 293, "weight": 0.1265}, {"source": 162, "target": 293, "weight": 0.1393}, {"source": 47, "target": 293, "weight": 0.216}, {"source": 144, "target": 293, "weight": 0.1335}, {"source": 263, "target": 293, "weight": 0.1143}, {"source": 293, "target": 301, "weight": 0.0681}, {"source": 293, "target": 296, "weight": 0.0032}, {"source": 172, "target": 293, "weight": 0.0891}, {"source": 292, "target": 293, "weight": 0.0259}, {"source": 203, "target": 293, "weight": 0.1527}, {"source": 65, "target": 293, "weight": 0.2037}, {"source": 167, "target": 293, "weight": 0.1038}, {"source": 293, "target": 306, "weight": 0.0838}, {"source": 293, "target": 297, "weight": 0.0165}, {"source": 246, "target": 293, "weight": 0.1198}, {"source": 253, "target": 293, "weight": 0.12}, {"source": 183, "target": 293, "weight": 0.1575}, {"source": 293, "target": 307, "weight": 0.0766}, {"source": 225, "target": 293, "weight": 0.053}, {"source": 216, "target": 293, "weight": 0.0595}, {"source": 284, "target": 293, "weight": 0.0698}, {"source": 274, "target": 293, "weight": 0.082}, {"source": 133, "target": 293, "weight": 0.1082}, {"source": 293, "target": 305, "weight": 0.0696}, {"source": 286, "target": 293, "weight": 0.0419}, {"source": 281, "target": 293, "weight": 0.0368}, {"source": 293, "target": 309, "weight": 0.0393}, {"source": 290, "target": 293, "weight": 0.0172}, {"source": 142, "target": 293, "weight": 0.1469}, {"source": 162, "target": 201, "weight": 0.241}, {"source": 147, "target": 162, "weight": 0.0095}, {"source": 162, "target": 258, "weight": 0.1971}, {"source": 162, "target": 182, "weight": 0.0777}, {"source": 152, "target": 162, "weight": 0.0261}, {"source": 144, "target": 162, "weight": 0.1873}, {"source": 162, "target": 301, "weight": 0.1196}, {"source": 162, "target": 221, "weight": 0.0423}, {"source": 162, "target": 321, "weight": 0.2101}, {"source": 162, "target": 307, "weight": 0.1317}, {"source": 92, "target": 162, "weight": 0.0312}, {"source": 91, "target": 162, "weight": 0.0334}, {"source": 125, "target": 162, "weight": 0.0263}, {"source": 162, "target": 305, "weight": 0.1249}, {"source": 162, "target": 202, "weight": 0.025}, {"source": 80, "target": 162, "weight": 0.044}, {"source": 162, "target": 273, "weight": 0.08}, {"source": 47, "target": 201, "weight": 0.0938}, {"source": 47, "target": 182, "weight": 0.1826}, {"source": 47, "target": 144, "weight": 0.0825}, {"source": 47, "target": 203, "weight": 0.0963}, {"source": 47, "target": 253, "weight": 0.1334}, {"source": 47, "target": 183, "weight": 0.0836}, {"source": 47, "target": 56, "weight": 0.0122}, {"source": 47, "target": 74, "weight": 0.031}, {"source": 47, "target": 86, "weight": 0.0555}, {"source": 118, "target": 230, "weight": 0.0737}, {"source": 230, "target": 261, "weight": 0.0849}, {"source": 230, "target": 248, "weight": 0.1911}, {"source": 201, "target": 230, "weight": 0.2122}, {"source": 150, "target": 230, "weight": 0.0634}, {"source": 166, "target": 230, "weight": 0.1295}, {"source": 230, "target": 311, "weight": 0.0901}, {"source": 146, "target": 230, "weight": 0.0642}, {"source": 147, "target": 230, "weight": 0.0627}, {"source": 230, "target": 258, "weight": 0.1591}, {"source": 112, "target": 230, "weight": 0.068}, {"source": 182, "target": 230, "weight": 0.0586}, {"source": 67, "target": 230, "weight": 0.1115}, {"source": 219, "target": 230, "weight": 0.1744}, {"source": 230, "target": 299, "weight": 0.0648}, {"source": 152, "target": 230, "weight": 0.0505}, {"source": 230, "target": 293, "weight": 0.0887}, {"source": 162, "target": 230, "weight": 0.0532}, {"source": 47, "target": 230, "weight": 0.2408}, {"source": 179, "target": 230, "weight": 0.0401}, {"source": 230, "target": 263, "weight": 0.186}, {"source": 230, "target": 301, "weight": 0.0697}, {"source": 177, "target": 230, "weight": 0.0398}, {"source": 221, "target": 230, "weight": 0.0127}, {"source": 176, "target": 230, "weight": 0.0412}, {"source": 230, "target": 310, "weight": 0.0875}, {"source": 230, "target": 232, "weight": 0.046}, {"source": 230, "target": 321, "weight": 0.1774}, {"source": 172, "target": 230, "weight": 0.0802}, {"source": 230, "target": 292, "weight": 0.0688}, {"source": 167, "target": 230, "weight": 0.0509}, {"source": 230, "target": 306, "weight": 0.0816}, {"source": 230, "target": 297, "weight": 0.1044}, {"source": 94, "target": 230, "weight": 0.0819}, {"source": 161, "target": 230, "weight": 0.0478}, {"source": 159, "target": 230, "weight": 0.0468}, {"source": 230, "target": 307, "weight": 0.083}, {"source": 230, "target": 284, "weight": 0.0453}, {"source": 212, "target": 230, "weight": 0.029}, {"source": 92, "target": 230, "weight": 0.0793}, {"source": 91, "target": 230, "weight": 0.0773}, {"source": 125, "target": 230, "weight": 0.0789}, {"source": 189, "target": 230, "weight": 0.0374}, {"source": 230, "target": 305, "weight": 0.0751}, {"source": 230, "target": 239, "weight": 0.0576}, {"source": 202, "target": 230, "weight": 0.0287}, {"source": 218, "target": 230, "weight": 0.0099}, {"source": 157, "target": 230, "weight": 0.0521}, {"source": 230, "target": 237, "weight": 0.0071}, {"source": 222, "target": 230, "weight": 0.0165}, {"source": 143, "target": 230, "weight": 0.0666}, {"source": 230, "target": 273, "weight": 0.0295}, {"source": 230, "target": 298, "weight": 0.0577}, {"source": 230, "target": 240, "weight": 0.0301}, {"source": 230, "target": 287, "weight": 0.0491}, {"source": 230, "target": 286, "weight": 0.0553}, {"source": 230, "target": 281, "weight": 0.0569}, {"source": 230, "target": 300, "weight": 0.068}, {"source": 204, "target": 230, "weight": 0.0208}, {"source": 230, "target": 252, "weight": 0.0179}, {"source": 186, "target": 230, "weight": 0.0304}, {"source": 230, "target": 295, "weight": 0.0532}, {"source": 215, "target": 230, "weight": 0.0141}, {"source": 230, "target": 272, "weight": 0.0393}, {"source": 230, "target": 235, "weight": 0.0108}, {"source": 230, "target": 243, "weight": 0.0179}, {"source": 230, "target": 238, "weight": 0.0174}, {"source": 227, "target": 230, "weight": 0.017}, {"source": 118, "target": 179, "weight": 0.0628}, {"source": 179, "target": 261, "weight": 0.1167}, {"source": 150, "target": 179, "weight": 0.0238}, {"source": 179, "target": 311, "weight": 0.1259}, {"source": 146, "target": 179, "weight": 0.0244}, {"source": 147, "target": 179, "weight": 0.0229}, {"source": 112, "target": 179, "weight": 0.0454}, {"source": 179, "target": 182, "weight": 0.0678}, {"source": 67, "target": 179, "weight": 0.1005}, {"source": 179, "target": 299, "weight": 0.1019}, {"source": 152, "target": 179, "weight": 0.0225}, {"source": 179, "target": 293, "weight": 0.126}, {"source": 162, "target": 179, "weight": 0.0134}, {"source": 179, "target": 301, "weight": 0.1077}, {"source": 179, "target": 221, "weight": 0.0299}, {"source": 179, "target": 310, "weight": 0.1232}, {"source": 179, "target": 232, "weight": 0.0753}, {"source": 123, "target": 179, "weight": 0.0613}, {"source": 172, "target": 179, "weight": 0.0901}, {"source": 179, "target": 292, "weight": 0.1082}, {"source": 167, "target": 179, "weight": 0.0478}, {"source": 179, "target": 306, "weight": 0.1173}, {"source": 94, "target": 179, "weight": 0.0677}, {"source": 179, "target": 307, "weight": 0.1201}, {"source": 92, "target": 179, "weight": 0.0409}, {"source": 91, "target": 179, "weight": 0.0408}, {"source": 125, "target": 179, "weight": 0.0396}, {"source": 179, "target": 189, "weight": 0.0448}, {"source": 179, "target": 218, "weight": 0.0302}, {"source": 144, "target": 182, "weight": 0.1118}, {"source": 144, "target": 253, "weight": 0.0742}, {"source": 144, "target": 183, "weight": 0.0529}, {"source": 144, "target": 216, "weight": 0.0929}, {"source": 144, "target": 274, "weight": 0.083}, {"source": 86, "target": 144, "weight": 0.0286}, {"source": 104, "target": 144, "weight": 0.0206}, {"source": 201, "target": 263, "weight": 0.0536}, {"source": 182, "target": 263, "weight": 0.1482}, {"source": 47, "target": 263, "weight": 0.1429}, {"source": 144, "target": 263, "weight": 0.0813}, {"source": 203, "target": 263, "weight": 0.0504}, {"source": 253, "target": 263, "weight": 0.0097}, {"source": 183, "target": 263, "weight": 0.0613}, {"source": 250, "target": 263, "weight": 0.0109}, {"source": 118, "target": 174, "weight": 0.0632}, {"source": 174, "target": 261, "weight": 0.1198}, {"source": 174, "target": 248, "weight": 0.2183}, {"source": 174, "target": 201, "weight": 0.2332}, {"source": 150, "target": 174, "weight": 0.0203}, {"source": 166, "target": 174, "weight": 0.1438}, {"source": 174, "target": 311, "weight": 0.1291}, {"source": 146, "target": 174, "weight": 0.0209}, {"source": 147, "target": 174, "weight": 0.0193}, {"source": 174, "target": 258, "weight": 0.1882}, {"source": 112, "target": 174, "weight": 0.0448}, {"source": 174, "target": 182, "weight": 0.0698}, {"source": 67, "target": 174, "weight": 0.1004}, {"source": 174, "target": 219, "weight": 0.1982}, {"source": 174, "target": 299, "weight": 0.1053}, {"source": 152, "target": 174, "weight": 0.0221}, {"source": 174, "target": 293, "weight": 0.1294}, {"source": 162, "target": 174, "weight": 0.0099}, {"source": 174, "target": 230, "weight": 0.0436}, {"source": 174, "target": 301, "weight": 0.1111}, {"source": 174, "target": 221, "weight": 0.0333}, {"source": 174, "target": 176, "weight": 0.0407}, {"source": 174, "target": 310, "weight": 0.1264}, {"source": 131, "target": 174, "weight": 0.034}, {"source": 174, "target": 321, "weight": 0.2054}, {"source": 172, "target": 174, "weight": 0.0919}, {"source": 174, "target": 292, "weight": 0.1117}, {"source": 167, "target": 174, "weight": 0.0493}, {"source": 174, "target": 306, "weight": 0.1206}, {"source": 161, "target": 174, "weight": 0.039}, {"source": 159, "target": 174, "weight": 0.0327}, {"source": 174, "target": 307, "weight": 0.1234}, {"source": 174, "target": 284, "weight": 0.0867}, {"source": 174, "target": 212, "weight": 0.0219}, {"source": 92, "target": 174, "weight": 0.0377}, {"source": 91, "target": 174, "weight": 0.038}, {"source": 125, "target": 174, "weight": 0.0362}, {"source": 174, "target": 305, "weight": 0.1164}, {"source": 174, "target": 202, "weight": 0.0162}, {"source": 174, "target": 218, "weight": 0.0338}, {"source": 143, "target": 174, "weight": 0.0239}, {"source": 174, "target": 273, "weight": 0.0712}, {"source": 174, "target": 204, "weight": 0.0243}, {"source": 89, "target": 174, "weight": 0.0386}, {"source": 118, "target": 177, "weight": 0.0606}, {"source": 177, "target": 248, "weight": 0.2139}, {"source": 177, "target": 201, "weight": 0.229}, {"source": 150, "target": 177, "weight": 0.0247}, {"source": 177, "target": 311, "weight": 0.1264}, {"source": 146, "target": 177, "weight": 0.0253}, {"source": 177, "target": 258, "weight": 0.1837}, {"source": 177, "target": 182, "weight": 0.0657}, {"source": 67, "target": 177, "weight": 0.0983}, {"source": 177, "target": 299, "weight": 0.1023}, {"source": 152, "target": 177, "weight": 0.0204}, {"source": 177, "target": 293, "weight": 0.125}, {"source": 162, "target": 177, "weight": 0.0144}, {"source": 47, "target": 177, "weight": 0.2424}, {"source": 177, "target": 179, "weight": 0.0022}, {"source": 144, "target": 177, "weight": 0.1767}, {"source": 177, "target": 263, "weight": 0.2108}, {"source": 177, "target": 301, "weight": 0.1079}, {"source": 174, "target": 177, "weight": 0.0046}, {"source": 177, "target": 321, "weight": 0.2044}, {"source": 177, "target": 292, "weight": 0.1075}, {"source": 177, "target": 212, "weight": 0.0206}, {"source": 91, "target": 177, "weight": 0.0399}, {"source": 125, "target": 177, "weight": 0.0406}, {"source": 177, "target": 202, "weight": 0.0137}, {"source": 157, "target": 177, "weight": 0.0125}, {"source": 80, "target": 177, "weight": 0.0579}, {"source": 177, "target": 273, "weight": 0.0678}, {"source": 96, "target": 177, "weight": 0.0489}, {"source": 177, "target": 204, "weight": 0.02}, {"source": 141, "target": 177, "weight": 0.0183}, {"source": 182, "target": 221, "weight": 0.065}, {"source": 221, "target": 301, "weight": 0.0779}, {"source": 221, "target": 321, "weight": 0.1789}, {"source": 221, "target": 307, "weight": 0.0905}, {"source": 92, "target": 221, "weight": 0.0704}, {"source": 91, "target": 221, "weight": 0.0694}, {"source": 221, "target": 305, "weight": 0.0832}, {"source": 202, "target": 221, "weight": 0.0173}, {"source": 221, "target": 322, "weight": 0.1818}, {"source": 221, "target": 273, "weight": 0.0379}, {"source": 129, "target": 221, "weight": 0.0589}, {"source": 118, "target": 176, "weight": 0.0325}, {"source": 176, "target": 261, "weight": 0.0862}, {"source": 176, "target": 248, "weight": 0.1786}, {"source": 176, "target": 201, "weight": 0.1925}, {"source": 150, "target": 176, "weight": 0.0574}, {"source": 166, "target": 176, "weight": 0.1032}, {"source": 176, "target": 311, "weight": 0.1285}, {"source": 146, "target": 176, "weight": 0.0574}, {"source": 147, "target": 176, "weight": 0.0558}, {"source": 176, "target": 258, "weight": 0.1493}, {"source": 112, "target": 176, "weight": 0.031}, {"source": 176, "target": 182, "weight": 0.0291}, {"source": 67, "target": 176, "weight": 0.0708}, {"source": 176, "target": 219, "weight": 0.1579}, {"source": 176, "target": 299, "weight": 0.1028}, {"source": 152, "target": 176, "weight": 0.0265}, {"source": 162, "target": 176, "weight": 0.0486}, {"source": 47, "target": 176, "weight": 0.2078}, {"source": 176, "target": 179, "weight": 0.0388}, {"source": 144, "target": 176, "weight": 0.1401}, {"source": 176, "target": 263, "weight": 0.1762}, {"source": 176, "target": 301, "weight": 0.1064}, {"source": 176, "target": 221, "weight": 0.0426}, {"source": 176, "target": 310, "weight": 0.1261}, {"source": 176, "target": 232, "weight": 0.0468}, {"source": 176, "target": 296, "weight": 0.1048}, {"source": 172, "target": 176, "weight": 0.0513}, {"source": 176, "target": 292, "weight": 0.0911}, {"source": 65, "target": 176, "weight": 0.2031}, {"source": 167, "target": 176, "weight": 0.0105}, {"source": 176, "target": 306, "weight": 0.1204}, {"source": 94, "target": 176, "weight": 0.0408}, {"source": 176, "target": 307, "weight": 0.1204}, {"source": 176, "target": 284, "weight": 0.0831}, {"source": 176, "target": 212, "weight": 0.0478}, {"source": 92, "target": 176, "weight": 0.0584}, {"source": 91, "target": 176, "weight": 0.0527}, {"source": 176, "target": 189, "weight": 0.01}, {"source": 176, "target": 305, "weight": 0.1118}, {"source": 176, "target": 239, "weight": 0.0564}, {"source": 176, "target": 202, "weight": 0.0402}, {"source": 176, "target": 218, "weight": 0.0371}, {"source": 99, "target": 176, "weight": 0.037}, {"source": 176, "target": 222, "weight": 0.0311}, {"source": 80, "target": 176, "weight": 0.0853}, {"source": 176, "target": 271, "weight": 0.0701}, {"source": 176, "target": 192, "weight": 0.0096}, {"source": 126, "target": 176, "weight": 0.0268}, {"source": 137, "target": 176, "weight": 0.0187}, {"source": 118, "target": 310, "weight": 0.157}, {"source": 150, "target": 310, "weight": 0.1429}, {"source": 310, "target": 311, "weight": 0.0027}, {"source": 146, "target": 310, "weight": 0.1441}, {"source": 182, "target": 310, "weight": 0.1319}, {"source": 67, "target": 310, "weight": 0.1917}, {"source": 299, "target": 310, "weight": 0.0234}, {"source": 152, "target": 310, "weight": 0.1378}, {"source": 293, "target": 310, "weight": 0.086}, {"source": 162, "target": 310, "weight": 0.1342}, {"source": 301, "target": 310, "weight": 0.0219}, {"source": 177, "target": 310, "weight": 0.1238}, {"source": 221, "target": 310, "weight": 0.094}, {"source": 232, "target": 310, "weight": 0.0994}, {"source": 123, "target": 310, "weight": 0.1551}, {"source": 292, "target": 310, "weight": 0.0637}, {"source": 167, "target": 310, "weight": 0.1341}, {"source": 306, "target": 310, "weight": 0.0059}, {"source": 94, "target": 310, "weight": 0.1661}, {"source": 307, "target": 310, "weight": 0.0094}, {"source": 143, "target": 310, "weight": 0.1452}, {"source": 302, "target": 310, "weight": 0.0218}, {"source": 118, "target": 232, "weight": 0.067}, {"source": 201, "target": 232, "weight": 0.1667}, {"source": 232, "target": 311, "weight": 0.1013}, {"source": 232, "target": 258, "weight": 0.1133}, {"source": 182, "target": 232, "weight": 0.0355}, {"source": 67, "target": 232, "weight": 0.0954}, {"source": 152, "target": 232, "weight": 0.0719}, {"source": 162, "target": 232, "weight": 0.0881}, {"source": 47, "target": 232, "weight": 0.2028}, {"source": 232, "target": 301, "weight": 0.0775}, {"source": 232, "target": 292, "weight": 0.0483}, {"source": 232, "target": 297, "weight": 0.0681}, {"source": 94, "target": 232, "weight": 0.0762}, {"source": 232, "target": 307, "weight": 0.0915}, {"source": 225, "target": 232, "weight": 0.0389}, {"source": 216, "target": 232, "weight": 0.032}, {"source": 189, "target": 232, "weight": 0.0369}, {"source": 133, "target": 232, "weight": 0.0669}, {"source": 222, "target": 232, "weight": 0.0314}, {"source": 232, "target": 285, "weight": 0.047}, {"source": 118, "target": 131, "weight": 0.0313}, {"source": 131, "target": 261, "weight": 0.1123}, {"source": 131, "target": 248, "weight": 0.1993}, {"source": 131, "target": 201, "weight": 0.2095}, {"source": 131, "target": 150, "weight": 0.0418}, {"source": 131, "target": 166, "weight": 0.1183}, {"source": 131, "target": 311, "weight": 0.1494}, {"source": 131, "target": 146, "weight": 0.0412}, {"source": 131, "target": 147, "weight": 0.0398}, {"source": 131, "target": 258, "weight": 0.1715}, {"source": 112, "target": 131, "weight": 0.0108}, {"source": 131, "target": 182, "weight": 0.0502}, {"source": 67, "target": 131, "weight": 0.0667}, {"source": 131, "target": 219, "weight": 0.1771}, {"source": 131, "target": 299, "weight": 0.124}, {"source": 131, "target": 152, "weight": 0.0121}, {"source": 131, "target": 293, "weight": 0.129}, {"source": 131, "target": 162, "weight": 0.0368}, {"source": 47, "target": 131, "weight": 0.2139}, {"source": 131, "target": 230, "weight": 0.0594}, {"source": 131, "target": 179, "weight": 0.0346}, {"source": 131, "target": 301, "weight": 0.1284}, {"source": 131, "target": 177, "weight": 0.0325}, {"source": 131, "target": 221, "weight": 0.0552}, {"source": 131, "target": 176, "weight": 0.0267}, {"source": 131, "target": 310, "weight": 0.1469}, {"source": 123, "target": 131, "weight": 0.0302}, {"source": 131, "target": 172, "weight": 0.0685}, {"source": 131, "target": 292, "weight": 0.1172}, {"source": 131, "target": 167, "weight": 0.0278}, {"source": 131, "target": 306, "weight": 0.141}, {"source": 94, "target": 131, "weight": 0.0341}, {"source": 131, "target": 307, "weight": 0.1421}, {"source": 125, "target": 131, "weight": 0.0532}, {"source": 131, "target": 189, "weight": 0.0367}, {"source": 131, "target": 305, "weight": 0.1339}, {"source": 131, "target": 153, "weight": 0.1295}, {"source": 182, "target": 321, "weight": 0.2303}, {"source": 301, "target": 321, "weight": 0.124}, {"source": 321, "target": 322, "weight": 0.0054}, {"source": 321, "target": 325, "weight": 0.0094}, {"source": 118, "target": 296, "weight": 0.1237}, {"source": 150, "target": 296, "weight": 0.1517}, {"source": 296, "target": 311, "weight": 0.0848}, {"source": 258, "target": 296, "weight": 0.0926}, {"source": 182, "target": 296, "weight": 0.0905}, {"source": 67, "target": 296, "weight": 0.146}, {"source": 232, "target": 296, "weight": 0.0582}, {"source": 123, "target": 296, "weight": 0.1222}, {"source": 292, "target": 296, "weight": 0.0258}, {"source": 296, "target": 297, "weight": 0.0162}, {"source": 225, "target": 296, "weight": 0.0562}, {"source": 216, "target": 296, "weight": 0.0627}, {"source": 275, "target": 296, "weight": 0.0415}, {"source": 296, "target": 308, "weight": 0.0349}, {"source": 123, "target": 182, "weight": 0.0319}, {"source": 67, "target": 123, "weight": 0.0406}, {"source": 123, "target": 152, "weight": 0.0403}, {"source": 47, "target": 123, "weight": 0.1841}, {"source": 123, "target": 301, "weight": 0.1347}, {"source": 123, "target": 307, "weight": 0.1489}, {"source": 123, "target": 273, "weight": 0.0981}, {"source": 123, "target": 163, "weight": 0.021}, {"source": 123, "target": 302, "weight": 0.1351}, {"source": 118, "target": 217, "weight": 0.0562}, {"source": 217, "target": 261, "weight": 0.0611}, {"source": 217, "target": 248, "weight": 0.1628}, {"source": 201, "target": 217, "weight": 0.1823}, {"source": 166, "target": 217, "weight": 0.0991}, {"source": 217, "target": 311, "weight": 0.1039}, {"source": 146, "target": 217, "weight": 0.079}, {"source": 109, "target": 217, "weight": 0.0997}, {"source": 147, "target": 217, "weight": 0.0773}, {"source": 217, "target": 258, "weight": 0.1315}, {"source": 112, "target": 217, "weight": 0.0606}, {"source": 182, "target": 217, "weight": 0.0313}, {"source": 67, "target": 217, "weight": 0.09}, {"source": 217, "target": 219, "weight": 0.145}, {"source": 217, "target": 299, "weight": 0.0784}, {"source": 152, "target": 217, "weight": 0.0531}, {"source": 217, "target": 293, "weight": 0.0734}, {"source": 162, "target": 217, "weight": 0.0684}, {"source": 217, "target": 230, "weight": 0.0305}, {"source": 179, "target": 217, "weight": 0.0556}, {"source": 217, "target": 263, "weight": 0.1586}, {"source": 217, "target": 301, "weight": 0.0807}, {"source": 174, "target": 217, "weight": 0.0587}, {"source": 217, "target": 221, "weight": 0.0403}, {"source": 176, "target": 217, "weight": 0.0297}, {"source": 217, "target": 310, "weight": 0.1017}, {"source": 217, "target": 232, "weight": 0.0197}, {"source": 131, "target": 217, "weight": 0.0562}, {"source": 217, "target": 321, "weight": 0.1991}, {"source": 217, "target": 296, "weight": 0.0758}, {"source": 123, "target": 217, "weight": 0.0544}, {"source": 172, "target": 217, "weight": 0.0509}, {"source": 217, "target": 292, "weight": 0.0614}, {"source": 167, "target": 217, "weight": 0.0344}, {"source": 217, "target": 306, "weight": 0.0963}, {"source": 217, "target": 297, "weight": 0.087}, {"source": 94, "target": 217, "weight": 0.0655}, {"source": 159, "target": 217, "weight": 0.0417}, {"source": 217, "target": 307, "weight": 0.095}, {"source": 217, "target": 284, "weight": 0.0595}, {"source": 212, "target": 217, "weight": 0.0539}, {"source": 189, "target": 217, "weight": 0.0202}, {"source": 217, "target": 239, "weight": 0.0312}, {"source": 202, "target": 217, "weight": 0.0495}, {"source": 217, "target": 218, "weight": 0.0344}, {"source": 217, "target": 222, "weight": 0.014}, {"source": 217, "target": 240, "weight": 0.0142}, {"source": 217, "target": 283, "weight": 0.058}, {"source": 217, "target": 286, "weight": 0.0541}, {"source": 217, "target": 271, "weight": 0.0404}, {"source": 192, "target": 217, "weight": 0.0211}, {"source": 126, "target": 217, "weight": 0.0533}, {"source": 217, "target": 281, "weight": 0.0525}, {"source": 118, "target": 172, "weight": 0.0431}, {"source": 172, "target": 201, "weight": 0.1417}, {"source": 172, "target": 258, "weight": 0.1044}, {"source": 172, "target": 182, "weight": 0.0228}, {"source": 67, "target": 172, "weight": 0.054}, {"source": 172, "target": 299, "weight": 0.1243}, {"source": 152, "target": 172, "weight": 0.0747}, {"source": 162, "target": 172, "weight": 0.0994}, {"source": 47, "target": 172, "weight": 0.1606}, {"source": 144, "target": 172, "weight": 0.089}, {"source": 172, "target": 263, "weight": 0.1305}, {"source": 172, "target": 232, "weight": 0.0472}, {"source": 123, "target": 172, "weight": 0.0427}, {"source": 94, "target": 172, "weight": 0.0492}, {"source": 172, "target": 225, "weight": 0.0401}, {"source": 172, "target": 216, "weight": 0.0302}, {"source": 133, "target": 172, "weight": 0.0201}, {"source": 142, "target": 172, "weight": 0.1083}, {"source": 118, "target": 292, "weight": 0.1151}, {"source": 201, "target": 292, "weight": 0.179}, {"source": 182, "target": 292, "weight": 0.0837}, {"source": 152, "target": 292, "weight": 0.1126}, {"source": 162, "target": 292, "weight": 0.1215}, {"source": 144, "target": 292, "weight": 0.1512}, {"source": 292, "target": 301, "weight": 0.0439}, {"source": 292, "target": 297, "weight": 0.042}, {"source": 182, "target": 203, "weight": 0.1613}, {"source": 144, "target": 203, "weight": 0.0603}, {"source": 203, "target": 253, "weight": 0.0408}, {"source": 183, "target": 203, "weight": 0.0129}, {"source": 203, "target": 251, "weight": 0.039}, {"source": 65, "target": 201, "weight": 0.0761}, {"source": 65, "target": 258, "weight": 0.128}, {"source": 47, "target": 65, "weight": 0.0178}, {"source": 65, "target": 144, "weight": 0.0709}, {"source": 65, "target": 263, "weight": 0.1259}, {"source": 65, "target": 203, "weight": 0.0787}, {"source": 65, "target": 253, "weight": 0.1163}, {"source": 65, "target": 183, "weight": 0.066}, {"source": 65, "target": 169, "weight": 0.06}, {"source": 59, "target": 65, "weight": 0.0189}, {"source": 56, "target": 65, "weight": 0.0141}, {"source": 65, "target": 74, "weight": 0.0147}, {"source": 54, "target": 65, "weight": 0.0301}, {"source": 65, "target": 66, "weight": 0.0068}, {"source": 262, "target": 293, "weight": 0.0285}, {"source": 262, "target": 296, "weight": 0.0316}, {"source": 262, "target": 292, "weight": 0.0433}, {"source": 262, "target": 297, "weight": 0.0327}, {"source": 262, "target": 276, "weight": 0.0495}, {"source": 225, "target": 262, "weight": 0.0246}, {"source": 216, "target": 262, "weight": 0.0324}, {"source": 239, "target": 262, "weight": 0.0297}, {"source": 254, "target": 262, "weight": 0.0265}, {"source": 262, "target": 275, "weight": 0.0286}, {"source": 118, "target": 167, "weight": 0.0231}, {"source": 167, "target": 248, "weight": 0.1726}, {"source": 167, "target": 201, "weight": 0.1848}, {"source": 150, "target": 167, "weight": 0.0643}, {"source": 167, "target": 311, "weight": 0.1365}, {"source": 146, "target": 167, "weight": 0.0641}, {"source": 167, "target": 258, "weight": 0.1441}, {"source": 167, "target": 182, "weight": 0.0227}, {"source": 67, "target": 167, "weight": 0.0607}, {"source": 167, "target": 219, "weight": 0.151}, {"source": 167, "target": 299, "weight": 0.1108}, {"source": 152, "target": 167, "weight": 0.0318}, {"source": 162, "target": 167, "weight": 0.0563}, {"source": 167, "target": 301, "weight": 0.1138}, {"source": 167, "target": 232, "weight": 0.0484}, {"source": 123, "target": 167, "weight": 0.0211}, {"source": 167, "target": 172, "weight": 0.0431}, {"source": 167, "target": 292, "weight": 0.0951}, {"source": 167, "target": 307, "weight": 0.128}, {"source": 167, "target": 189, "weight": 0.015}, {"source": 167, "target": 302, "weight": 0.1143}, {"source": 182, "target": 306, "weight": 0.1266}, {"source": 152, "target": 306, "weight": 0.1319}, {"source": 162, "target": 306, "weight": 0.1284}, {"source": 301, "target": 306, "weight": 0.0175}, {"source": 221, "target": 306, "weight": 0.088}, {"source": 306, "target": 307, "weight": 0.0086}, {"source": 118, "target": 197, "weight": 0.1795}, {"source": 197, "target": 258, "weight": 0.0662}, {"source": 47, "target": 197, "weight": 0.0929}, {"source": 144, "target": 197, "weight": 0.0599}, {"source": 197, "target": 263, "weight": 0.0541}, {"source": 65, "target": 197, "weight": 0.0752}, {"source": 197, "target": 246, "weight": 0.0422}, {"source": 197, "target": 253, "weight": 0.0445}, {"source": 183, "target": 197, "weight": 0.0099}, {"source": 169, "target": 197, "weight": 0.0211}, {"source": 197, "target": 250, "weight": 0.0472}, {"source": 182, "target": 297, "weight": 0.0973}, {"source": 144, "target": 297, "weight": 0.1276}, {"source": 118, "target": 246, "weight": 0.1691}, {"source": 201, "target": 246, "weight": 0.0419}, {"source": 246, "target": 258, "weight": 0.029}, {"source": 182, "target": 246, "weight": 0.1458}, {"source": 47, "target": 246, "weight": 0.1301}, {"source": 144, "target": 246, "weight": 0.0704}, {"source": 246, "target": 263, "weight": 0.0128}, {"source": 203, "target": 246, "weight": 0.0386}, {"source": 65, "target": 246, "weight": 0.1131}, {"source": 246, "target": 253, "weight": 0.0039}, {"source": 183, "target": 246, "weight": 0.0489}, {"source": 169, "target": 246, "weight": 0.0532}, {"source": 246, "target": 250, "weight": 0.0059}, {"source": 118, "target": 233, "weight": 0.1161}, {"source": 233, "target": 261, "weight": 0.0529}, {"source": 233, "target": 255, "weight": 0.1138}, {"source": 233, "target": 248, "weight": 0.0609}, {"source": 201, "target": 233, "weight": 0.0839}, {"source": 166, "target": 233, "weight": 0.0461}, {"source": 233, "target": 258, "weight": 0.0315}, {"source": 182, "target": 233, "weight": 0.0901}, {"source": 67, "target": 233, "weight": 0.1163}, {"source": 219, "target": 233, "weight": 0.0446}, {"source": 152, "target": 233, "weight": 0.1441}, {"source": 233, "target": 293, "weight": 0.075}, {"source": 144, "target": 233, "weight": 0.0613}, {"source": 233, "target": 263, "weight": 0.0581}, {"source": 176, "target": 233, "weight": 0.1182}, {"source": 233, "target": 296, "weight": 0.0773}, {"source": 233, "target": 262, "weight": 0.0539}, {"source": 233, "target": 276, "weight": 0.0309}, {"source": 233, "target": 274, "weight": 0.0355}, {"source": 233, "target": 254, "weight": 0.0277}, {"source": 233, "target": 275, "weight": 0.0372}, {"source": 229, "target": 233, "weight": 0.0251}, {"source": 142, "target": 233, "weight": 0.0724}, {"source": 118, "target": 119, "weight": 0.0775}, {"source": 119, "target": 261, "weight": 0.1511}, {"source": 119, "target": 150, "weight": 0.0136}, {"source": 119, "target": 311, "weight": 0.159}, {"source": 109, "target": 119, "weight": 0.0095}, {"source": 119, "target": 147, "weight": 0.0141}, {"source": 112, "target": 119, "weight": 0.0544}, {"source": 119, "target": 182, "weight": 0.095}, {"source": 67, "target": 119, "weight": 0.1082}, {"source": 119, "target": 299, "weight": 0.1363}, {"source": 119, "target": 152, "weight": 0.0408}, {"source": 119, "target": 162, "weight": 0.0236}, {"source": 119, "target": 230, "weight": 0.0768}, {"source": 119, "target": 179, "weight": 0.0368}, {"source": 119, "target": 301, "weight": 0.1425}, {"source": 119, "target": 174, "weight": 0.0333}, {"source": 119, "target": 177, "weight": 0.0375}, {"source": 119, "target": 221, "weight": 0.0657}, {"source": 119, "target": 176, "weight": 0.067}, {"source": 119, "target": 310, "weight": 0.1563}, {"source": 119, "target": 131, "weight": 0.047}, {"source": 119, "target": 321, "weight": 0.2271}, {"source": 119, "target": 217, "weight": 0.0904}, {"source": 119, "target": 306, "weight": 0.1505}, {"source": 95, "target": 119, "weight": 0.0323}, {"source": 92, "target": 119, "weight": 0.0207}, {"source": 91, "target": 119, "weight": 0.0278}, {"source": 182, "target": 253, "weight": 0.1483}, {"source": 245, "target": 253, "weight": 0.0056}, {"source": 201, "target": 316, "weight": 0.2359}, {"source": 47, "target": 316, "weight": 0.3074}, {"source": 314, "target": 316, "weight": 0.0042}, {"source": 94, "target": 118, "weight": 0.0093}, {"source": 94, "target": 201, "weight": 0.1827}, {"source": 94, "target": 258, "weight": 0.1528}, {"source": 94, "target": 182, "weight": 0.042}, {"source": 67, "target": 94, "weight": 0.0327}, {"source": 94, "target": 152, "weight": 0.0456}, {"source": 94, "target": 162, "weight": 0.0709}, {"source": 47, "target": 94, "weight": 0.1804}, {"source": 94, "target": 263, "weight": 0.1782}, {"source": 94, "target": 301, "weight": 0.1457}, {"source": 90, "target": 94, "weight": 0.0075}, {"source": 77, "target": 94, "weight": 0.0104}, {"source": 118, "target": 288, "weight": 0.1222}, {"source": 261, "target": 288, "weight": 0.025}, {"source": 166, "target": 288, "weight": 0.0977}, {"source": 258, "target": 288, "weight": 0.0788}, {"source": 152, "target": 288, "weight": 0.1319}, {"source": 288, "target": 293, "weight": 0.0124}, {"source": 162, "target": 288, "weight": 0.1465}, {"source": 230, "target": 288, "weight": 0.0974}, {"source": 232, "target": 288, "weight": 0.06}, {"source": 288, "target": 296, "weight": 0.0138}, {"source": 203, "target": 288, "weight": 0.1407}, {"source": 262, "target": 288, "weight": 0.0248}, {"source": 288, "target": 297, "weight": 0.0083}, {"source": 276, "target": 288, "weight": 0.0465}, {"source": 254, "target": 288, "weight": 0.0384}, {"source": 275, "target": 288, "weight": 0.0278}, {"source": 288, "target": 308, "weight": 0.0389}, {"source": 118, "target": 161, "weight": 0.0273}, {"source": 161, "target": 261, "weight": 0.0936}, {"source": 161, "target": 248, "weight": 0.1832}, {"source": 146, "target": 161, "weight": 0.0533}, {"source": 147, "target": 161, "weight": 0.0517}, {"source": 112, "target": 161, "weight": 0.0225}, {"source": 161, "target": 182, "weight": 0.0332}, {"source": 67, "target": 161, "weight": 0.0661}, {"source": 161, "target": 299, "weight": 0.1106}, {"source": 152, "target": 161, "weight": 0.0211}, {"source": 161, "target": 162, "weight": 0.0457}, {"source": 161, "target": 179, "weight": 0.0378}, {"source": 161, "target": 301, "weight": 0.1143}, {"source": 161, "target": 167, "weight": 0.0108}, {"source": 161, "target": 189, "weight": 0.0183}, {"source": 99, "target": 161, "weight": 0.0293}, {"source": 126, "target": 161, "weight": 0.0203}, {"source": 137, "target": 161, "weight": 0.0114}, {"source": 100, "target": 161, "weight": 0.0276}, {"source": 161, "target": 191, "weight": 0.0245}, {"source": 93, "target": 161, "weight": 0.0294}, {"source": 183, "target": 253, "weight": 0.0516}, {"source": 118, "target": 159, "weight": 0.0317}, {"source": 159, "target": 261, "weight": 0.099}, {"source": 159, "target": 248, "weight": 0.1898}, {"source": 150, "target": 159, "weight": 0.0468}, {"source": 159, "target": 166, "weight": 0.112}, {"source": 146, "target": 159, "weight": 0.0466}, {"source": 147, "target": 159, "weight": 0.045}, {"source": 159, "target": 258, "weight": 0.161}, {"source": 112, "target": 159, "weight": 0.0213}, {"source": 159, "target": 182, "weight": 0.0398}, {"source": 67, "target": 159, "weight": 0.0703}, {"source": 159, "target": 219, "weight": 0.1685}, {"source": 159, "target": 299, "weight": 0.1108}, {"source": 152, "target": 159, "weight": 0.0144}, {"source": 159, "target": 293, "weight": 0.1148}, {"source": 159, "target": 162, "weight": 0.039}, {"source": 159, "target": 179, "weight": 0.0317}, {"source": 159, "target": 301, "weight": 0.1149}, {"source": 159, "target": 176, "weight": 0.0128}, {"source": 123, "target": 159, "weight": 0.03}, {"source": 159, "target": 167, "weight": 0.0175}, {"source": 94, "target": 159, "weight": 0.038}, {"source": 159, "target": 161, "weight": 0.0068}, {"source": 307, "target": 311, "weight": 0.0103}, {"source": 182, "target": 307, "weight": 0.1246}, {"source": 301, "target": 307, "weight": 0.0142}, {"source": 305, "target": 307, "weight": 0.0092}, {"source": 95, "target": 118, "weight": 0.0476}, {"source": 95, "target": 150, "weight": 0.0335}, {"source": 95, "target": 146, "weight": 0.0323}, {"source": 95, "target": 147, "weight": 0.0317}, {"source": 95, "target": 112, "weight": 0.0245}, {"source": 67, "target": 95, "weight": 0.076}, {"source": 95, "target": 299, "weight": 0.1392}, {"source": 95, "target": 152, "weight": 0.0246}, {"source": 95, "target": 162, "weight": 0.0343}, {"source": 95, "target": 230, "weight": 0.0747}, {"source": 95, "target": 179, "weight": 0.0399}, {"source": 95, "target": 174, "weight": 0.0375}, {"source": 95, "target": 177, "weight": 0.0387}, {"source": 95, "target": 221, "weight": 0.0675}, {"source": 95, "target": 176, "weight": 0.0479}, {"source": 95, "target": 131, "weight": 0.0216}, {"source": 92, "target": 95, "weight": 0.0135}, {"source": 91, "target": 95, "weight": 0.0057}, {"source": 245, "target": 261, "weight": 0.1093}, {"source": 201, "target": 245, "weight": 0.0385}, {"source": 166, "target": 245, "weight": 0.0869}, {"source": 245, "target": 258, "weight": 0.0331}, {"source": 219, "target": 245, "weight": 0.0243}, {"source": 47, "target": 245, "weight": 0.1281}, {"source": 144, "target": 245, "weight": 0.0708}, {"source": 245, "target": 263, "weight": 0.0152}, {"source": 203, "target": 245, "weight": 0.0353}, {"source": 65, "target": 245, "weight": 0.1109}, {"source": 197, "target": 245, "weight": 0.0389}, {"source": 245, "target": 246, "weight": 0.0041}, {"source": 183, "target": 245, "weight": 0.0461}, {"source": 213, "target": 245, "weight": 0.0255}, {"source": 242, "target": 245, "weight": 0.0078}, {"source": 118, "target": 276, "weight": 0.1353}, {"source": 248, "target": 276, "weight": 0.0645}, {"source": 201, "target": 276, "weight": 0.0986}, {"source": 258, "target": 276, "weight": 0.0327}, {"source": 219, "target": 276, "weight": 0.0606}, {"source": 276, "target": 293, "weight": 0.0588}, {"source": 263, "target": 276, "weight": 0.0557}, {"source": 276, "target": 296, "weight": 0.0601}, {"source": 276, "target": 297, "weight": 0.0458}, {"source": 254, "target": 276, "weight": 0.0292}, {"source": 275, "target": 276, "weight": 0.0213}, {"source": 8, "target": 118, "weight": 0.3655}, {"source": 8, "target": 248, "weight": 0.3059}, {"source": 8, "target": 201, "weight": 0.2654}, {"source": 8, "target": 112, "weight": 0.3847}, {"source": 8, "target": 313, "weight": 0.3829}, {"source": 8, "target": 67, "weight": 0.3284}, {"source": 8, "target": 47, "weight": 0.1926}, {"source": 8, "target": 144, "weight": 0.2746}, {"source": 8, "target": 65, "weight": 0.204}, {"source": 8, "target": 26, "weight": 0.083}, {"source": 4, "target": 8, "weight": 0.0365}, {"source": 8, "target": 13, "weight": 0.0604}, {"source": 8, "target": 23, "weight": 0.0478}, {"source": 3, "target": 8, "weight": 0.0843}, {"source": 2, "target": 8, "weight": 0.0866}, {"source": 5, "target": 8, "weight": 0.0849}, {"source": 8, "target": 36, "weight": 0.1093}, {"source": 8, "target": 16, "weight": 0.0239}, {"source": 6, "target": 8, "weight": 0.0683}, {"source": 8, "target": 35, "weight": 0.0863}, {"source": 8, "target": 28, "weight": 0.1099}, {"source": 8, "target": 30, "weight": 0.0596}, {"source": 118, "target": 225, "weight": 0.08}, {"source": 225, "target": 258, "weight": 0.0757}, {"source": 182, "target": 225, "weight": 0.0489}, {"source": 144, "target": 225, "weight": 0.0895}, {"source": 216, "target": 225, "weight": 0.0116}, {"source": 142, "target": 225, "weight": 0.1062}, {"source": 169, "target": 201, "weight": 0.0222}, {"source": 47, "target": 169, "weight": 0.077}, {"source": 144, "target": 169, "weight": 0.0416}, {"source": 169, "target": 263, "weight": 0.0659}, {"source": 169, "target": 203, "weight": 0.0232}, {"source": 169, "target": 183, "weight": 0.012}, {"source": 142, "target": 216, "weight": 0.1105}, {"source": 118, "target": 284, "weight": 0.1142}, {"source": 284, "target": 311, "weight": 0.0455}, {"source": 146, "target": 284, "weight": 0.106}, {"source": 182, "target": 284, "weight": 0.0904}, {"source": 284, "target": 299, "weight": 0.0198}, {"source": 152, "target": 284, "weight": 0.0958}, {"source": 162, "target": 284, "weight": 0.0954}, {"source": 221, "target": 284, "weight": 0.0535}, {"source": 284, "target": 306, "weight": 0.0373}, {"source": 273, "target": 284, "weight": 0.0158}, {"source": 284, "target": 286, "weight": 0.028}, {"source": 284, "target": 300, "weight": 0.0235}, {"source": 182, "target": 212, "weight": 0.0743}, {"source": 152, "target": 212, "weight": 0.04}, {"source": 162, "target": 212, "weight": 0.0289}, {"source": 212, "target": 221, "weight": 0.0164}, {"source": 131, "target": 212, "weight": 0.0519}, {"source": 202, "target": 212, "weight": 0.0082}, {"source": 229, "target": 274, "weight": 0.0555}, {"source": 312, "target": 316, "weight": 0.018}, {"source": 68, "target": 109, "weight": 0.0259}, {"source": 68, "target": 147, "weight": 0.0478}, {"source": 68, "target": 125, "weight": 0.0323}, {"source": 68, "target": 80, "weight": 0.0134}, {"source": 68, "target": 96, "weight": 0.0223}, {"source": 91, "target": 92, "weight": 0.008}, {"source": 125, "target": 221, "weight": 0.0673}, {"source": 101, "target": 118, "weight": 0.0722}, {"source": 101, "target": 255, "weight": 0.1024}, {"source": 101, "target": 146, "weight": 0.0189}, {"source": 101, "target": 112, "weight": 0.0489}, {"source": 101, "target": 152, "weight": 0.0392}, {"source": 101, "target": 162, "weight": 0.0285}, {"source": 101, "target": 230, "weight": 0.0807}, {"source": 101, "target": 179, "weight": 0.0407}, {"source": 101, "target": 174, "weight": 0.0372}, {"source": 101, "target": 221, "weight": 0.0704}, {"source": 101, "target": 176, "weight": 0.0657}, {"source": 95, "target": 101, "weight": 0.0252}, {"source": 80, "target": 101, "weight": 0.0198}, {"source": 101, "target": 129, "weight": 0.012}, {"source": 327, "target": 329, "weight": 0.0163}, {"source": 329, "target": 330, "weight": 0.0784}, {"source": 328, "target": 329, "weight": 0.007}, {"source": 118, "target": 256, "weight": 0.0806}, {"source": 256, "target": 261, "weight": 0.0528}, {"source": 182, "target": 256, "weight": 0.0529}, {"source": 256, "target": 299, "weight": 0.0563}, {"source": 152, "target": 256, "weight": 0.0741}, {"source": 230, "target": 256, "weight": 0.0335}, {"source": 176, "target": 256, "weight": 0.0535}, {"source": 232, "target": 256, "weight": 0.0218}, {"source": 256, "target": 296, "weight": 0.0574}, {"source": 217, "target": 256, "weight": 0.0245}, {"source": 256, "target": 292, "weight": 0.0385}, {"source": 189, "target": 256, "weight": 0.0444}, {"source": 240, "target": 256, "weight": 0.0103}, {"source": 256, "target": 271, "weight": 0.0208}, {"source": 256, "target": 267, "weight": 0.0377}, {"source": 256, "target": 272, "weight": 0.0122}, {"source": 182, "target": 189, "weight": 0.0241}, {"source": 118, "target": 133, "weight": 0.0412}, {"source": 133, "target": 258, "weight": 0.1113}, {"source": 133, "target": 182, "weight": 0.0373}, {"source": 133, "target": 152, "weight": 0.0802}, {"source": 133, "target": 144, "weight": 0.0821}, {"source": 133, "target": 140, "weight": 0.0062}, {"source": 261, "target": 305, "weight": 0.0905}, {"source": 305, "target": 311, "weight": 0.0192}, {"source": 146, "target": 305, "weight": 0.1353}, {"source": 182, "target": 305, "weight": 0.1155}, {"source": 301, "target": 305, "weight": 0.0055}, {"source": 248, "target": 318, "weight": 0.2349}, {"source": 201, "target": 318, "weight": 0.2421}, {"source": 316, "target": 318, "weight": 0.0113}, {"source": 312, "target": 318, "weight": 0.0272}, {"source": 182, "target": 239, "weight": 0.0396}, {"source": 232, "target": 239, "weight": 0.0118}, {"source": 216, "target": 239, "weight": 0.0234}, {"source": 206, "target": 239, "weight": 0.0247}, {"source": 202, "target": 204, "weight": 0.0136}, {"source": 118, "target": 218, "weight": 0.0693}, {"source": 146, "target": 218, "weight": 0.0543}, {"source": 218, "target": 299, "weight": 0.0735}, {"source": 152, "target": 218, "weight": 0.042}, {"source": 162, "target": 218, "weight": 0.0433}, {"source": 177, "target": 218, "weight": 0.03}, {"source": 218, "target": 221, "weight": 0.0062}, {"source": 204, "target": 218, "weight": 0.0118}, {"source": 45, "target": 118, "weight": 0.1602}, {"source": 45, "target": 201, "weight": 0.0986}, {"source": 45, "target": 67, "weight": 0.1266}, {"source": 45, "target": 47, "weight": 0.0244}, {"source": 45, "target": 144, "weight": 0.0712}, {"source": 45, "target": 65, "weight": 0.0323}, {"source": 45, "target": 50, "weight": 0.0187}, {"source": 45, "target": 46, "weight": 0.0314}, {"source": 45, "target": 55, "weight": 0.0299}, {"source": 45, "target": 58, "weight": 0.0122}, {"source": 45, "target": 54, "weight": 0.0086}, {"source": 118, "target": 128, "weight": 0.0296}, {"source": 128, "target": 258, "weight": 0.1214}, {"source": 128, "target": 182, "weight": 0.0315}, {"source": 67, "target": 128, "weight": 0.0321}, {"source": 128, "target": 152, "weight": 0.0691}, {"source": 128, "target": 133, "weight": 0.0116}, {"source": 128, "target": 142, "weight": 0.1129}, {"source": 99, "target": 118, "weight": 0.0149}, {"source": 67, "target": 99, "weight": 0.0435}, {"source": 99, "target": 152, "weight": 0.0354}, {"source": 99, "target": 167, "weight": 0.0305}, {"source": 94, "target": 99, "weight": 0.0121}, {"source": 201, "target": 251, "weight": 0.0423}, {"source": 251, "target": 258, "weight": 0.0314}, {"source": 197, "target": 251, "weight": 0.0427}, {"source": 242, "target": 251, "weight": 0.0104}, {"source": 118, "target": 260, "weight": 0.0955}, {"source": 146, "target": 260, "weight": 0.0815}, {"source": 147, "target": 260, "weight": 0.0802}, {"source": 230, "target": 260, "weight": 0.0226}, {"source": 179, "target": 260, "weight": 0.0589}, {"source": 177, "target": 260, "weight": 0.0592}, {"source": 221, "target": 260, "weight": 0.0291}, {"source": 260, "target": 284, "weight": 0.0245}, {"source": 260, "target": 273, "weight": 0.0095}, {"source": 316, "target": 319, "weight": 0.0133}, {"source": 318, "target": 319, "weight": 0.0051}, {"source": 83, "target": 118, "weight": 0.145}, {"source": 83, "target": 248, "weight": 0.0927}, {"source": 83, "target": 201, "weight": 0.0649}, {"source": 83, "target": 166, "weight": 0.0681}, {"source": 47, "target": 83, "weight": 0.0483}, {"source": 83, "target": 144, "weight": 0.0343}, {"source": 65, "target": 83, "weight": 0.0378}, {"source": 45, "target": 83, "weight": 0.0393}, {"source": 59, "target": 83, "weight": 0.0297}, {"source": 83, "target": 85, "weight": 0.0211}, {"source": 58, "target": 83, "weight": 0.0271}, {"source": 83, "target": 86, "weight": 0.0098}, {"source": 83, "target": 104, "weight": 0.0136}, {"source": 54, "target": 83, "weight": 0.0307}, {"source": 83, "target": 97, "weight": 0.0195}, {"source": 118, "target": 157, "weight": 0.0592}, {"source": 152, "target": 157, "weight": 0.0178}, {"source": 157, "target": 221, "weight": 0.0426}, {"source": 141, "target": 157, "weight": 0.0083}, {"source": 118, "target": 181, "weight": 0.0907}, {"source": 181, "target": 261, "weight": 0.0687}, {"source": 166, "target": 181, "weight": 0.0094}, {"source": 181, "target": 258, "weight": 0.0634}, {"source": 181, "target": 182, "weight": 0.073}, {"source": 181, "target": 219, "weight": 0.0593}, {"source": 144, "target": 181, "weight": 0.0416}, {"source": 181, "target": 188, "weight": 0.005}, {"source": 146, "target": 237, "weight": 0.0704}, {"source": 162, "target": 237, "weight": 0.0593}, {"source": 221, "target": 237, "weight": 0.0197}, {"source": 118, "target": 198, "weight": 0.0637}, {"source": 198, "target": 258, "weight": 0.0845}, {"source": 182, "target": 198, "weight": 0.0375}, {"source": 198, "target": 219, "weight": 0.0915}, {"source": 152, "target": 198, "weight": 0.0917}, {"source": 198, "target": 232, "weight": 0.0453}, {"source": 172, "target": 198, "weight": 0.0209}, {"source": 198, "target": 216, "weight": 0.0159}, {"source": 198, "target": 206, "weight": 0.021}, {"source": 142, "target": 198, "weight": 0.0983}, {"source": 322, "target": 325, "weight": 0.0061}, {"source": 118, "target": 143, "weight": 0.0762}, {"source": 143, "target": 311, "weight": 0.1479}, {"source": 143, "target": 299, "weight": 0.1253}, {"source": 143, "target": 152, "weight": 0.0364}, {"source": 143, "target": 162, "weight": 0.014}, {"source": 143, "target": 221, "weight": 0.0552}, {"source": 143, "target": 306, "weight": 0.1394}, {"source": 92, "target": 143, "weight": 0.0269}, {"source": 143, "target": 170, "weight": 0.0148}, {"source": 118, "target": 249, "weight": 0.0842}, {"source": 147, "target": 249, "weight": 0.0736}, {"source": 162, "target": 249, "weight": 0.0641}, {"source": 230, "target": 249, "weight": 0.0122}, {"source": 221, "target": 249, "weight": 0.0219}, {"source": 218, "target": 249, "weight": 0.0215}, {"source": 249, "target": 260, "weight": 0.0113}, {"source": 90, "target": 118, "weight": 0.0133}, {"source": 90, "target": 182, "weight": 0.0422}, {"source": 67, "target": 90, "weight": 0.0258}, {"source": 90, "target": 152, "weight": 0.0528}, {"source": 73, "target": 90, "weight": 0.0115}, {"source": 293, "target": 308, "weight": 0.0378}, {"source": 297, "target": 308, "weight": 0.0319}, {"source": 273, "target": 322, "weight": 0.1556}, {"source": 147, "target": 298, "weight": 0.1155}, {"source": 298, "target": 299, "weight": 0.0072}, {"source": 221, "target": 298, "weight": 0.065}, {"source": 284, "target": 298, "weight": 0.013}, {"source": 298, "target": 300, "weight": 0.0105}, {"source": 327, "target": 332, "weight": 0.0013}, {"source": 118, "target": 240, "weight": 0.0703}, {"source": 177, "target": 240, "weight": 0.0627}, {"source": 232, "target": 240, "weight": 0.0169}, {"source": 261, "target": 303, "weight": 0.049}, {"source": 293, "target": 303, "weight": 0.0238}, {"source": 296, "target": 303, "weight": 0.0212}, {"source": 213, "target": 248, "weight": 0.0279}, {"source": 201, "target": 213, "weight": 0.0157}, {"source": 144, "target": 213, "weight": 0.0549}, {"source": 213, "target": 263, "weight": 0.0407}, {"source": 197, "target": 213, "weight": 0.0156}, {"source": 213, "target": 246, "weight": 0.0282}, {"source": 213, "target": 253, "weight": 0.0311}, {"source": 183, "target": 213, "weight": 0.0208}, {"source": 169, "target": 213, "weight": 0.026}, {"source": 199, "target": 213, "weight": 0.0103}, {"source": 205, "target": 213, "weight": 0.0064}, {"source": 200, "target": 213, "weight": 0.0093}, {"source": 287, "target": 301, "weight": 0.025}, {"source": 118, "target": 229, "weight": 0.0955}, {"source": 229, "target": 261, "weight": 0.0325}, {"source": 229, "target": 262, "weight": 0.0335}, {"source": 229, "target": 254, "weight": 0.0148}, {"source": 142, "target": 229, "weight": 0.0895}, {"source": 201, "target": 250, "weight": 0.047}, {"source": 182, "target": 250, "weight": 0.1413}, {"source": 144, "target": 250, "weight": 0.0704}, {"source": 203, "target": 250, "weight": 0.0436}, {"source": 250, "target": 274, "weight": 0.0327}, {"source": 261, "target": 283, "weight": 0.0375}, {"source": 283, "target": 293, "weight": 0.022}, {"source": 232, "target": 283, "weight": 0.0435}, {"source": 271, "target": 283, "weight": 0.0177}, {"source": 281, "target": 283, "weight": 0.0149}, {"source": 267, "target": 283, "weight": 0.0228}, {"source": 286, "target": 301, "weight": 0.0337}, {"source": 118, "target": 149, "weight": 0.0648}, {"source": 149, "target": 255, "weight": 0.0811}, {"source": 112, "target": 149, "weight": 0.043}, {"source": 149, "target": 152, "weight": 0.0244}, {"source": 149, "target": 230, "weight": 0.059}, {"source": 149, "target": 221, "weight": 0.0487}, {"source": 149, "target": 157, "weight": 0.008}, {"source": 72, "target": 118, "weight": 0.0788}, {"source": 72, "target": 146, "weight": 0.0355}, {"source": 72, "target": 147, "weight": 0.0365}, {"source": 72, "target": 152, "weight": 0.0523}, {"source": 72, "target": 162, "weight": 0.0452}, {"source": 72, "target": 177, "weight": 0.0572}, {"source": 72, "target": 96, "weight": 0.0171}, {"source": 271, "target": 281, "weight": 0.018}, {"source": 267, "target": 271, "weight": 0.0191}, {"source": 118, "target": 120, "weight": 0.0194}, {"source": 120, "target": 166, "weight": 0.07}, {"source": 120, "target": 258, "weight": 0.1312}, {"source": 120, "target": 182, "weight": 0.0307}, {"source": 67, "target": 120, "weight": 0.0297}, {"source": 120, "target": 130, "weight": 0.0073}, {"source": 106, "target": 120, "weight": 0.0243}, {"source": 118, "target": 192, "weight": 0.0412}, {"source": 182, "target": 192, "weight": 0.0301}, {"source": 152, "target": 192, "weight": 0.0323}, {"source": 189, "target": 192, "weight": 0.0059}, {"source": 192, "target": 222, "weight": 0.0215}, {"source": 192, "target": 204, "weight": 0.0246}, {"source": 126, "target": 182, "weight": 0.0349}, {"source": 281, "target": 286, "weight": 0.0058}, {"source": 266, "target": 281, "weight": 0.0261}, {"source": 105, "target": 182, "weight": 0.0512}, {"source": 105, "target": 123, "weight": 0.0248}, {"source": 105, "target": 167, "weight": 0.0306}, {"source": 96, "target": 118, "weight": 0.0844}, {"source": 96, "target": 152, "weight": 0.0505}, {"source": 96, "target": 162, "weight": 0.0351}, {"source": 109, "target": 170, "weight": 0.0332}, {"source": 112, "target": 170, "weight": 0.0519}, {"source": 152, "target": 170, "weight": 0.0305}, {"source": 131, "target": 170, "weight": 0.0415}, {"source": 125, "target": 170, "weight": 0.027}, {"source": 300, "target": 301, "weight": 0.0097}, {"source": 221, "target": 300, "weight": 0.0749}, {"source": 300, "target": 307, "weight": 0.016}, {"source": 118, "target": 136, "weight": 0.0728}, {"source": 67, "target": 136, "weight": 0.1058}, {"source": 136, "target": 152, "weight": 0.0337}, {"source": 134, "target": 136, "weight": 0.0046}, {"source": 118, "target": 139, "weight": 0.0344}, {"source": 139, "target": 162, "weight": 0.0331}, {"source": 139, "target": 230, "weight": 0.0546}, {"source": 139, "target": 177, "weight": 0.0277}, {"source": 139, "target": 167, "weight": 0.0272}, {"source": 139, "target": 161, "weight": 0.0171}, {"source": 137, "target": 139, "weight": 0.0191}, {"source": 135, "target": 139, "weight": 0.005}, {"source": 118, "target": 137, "weight": 0.0168}, {"source": 137, "target": 152, "weight": 0.0257}, {"source": 126, "target": 137, "weight": 0.0089}, {"source": 127, "target": 137, "weight": 0.0092}, {"source": 267, "target": 281, "weight": 0.033}, {"source": 118, "target": 130, "weight": 0.0142}, {"source": 130, "target": 258, "weight": 0.1336}, {"source": 130, "target": 182, "weight": 0.0258}, {"source": 130, "target": 148, "weight": 0.0086}, {"source": 201, "target": 242, "weight": 0.0331}, {"source": 224, "target": 242, "weight": 0.0104}, {"source": 26, "target": 47, "weight": 0.1216}, {"source": 26, "target": 33, "weight": 0.0322}, {"source": 26, "target": 29, "weight": 0.0131}, {"source": 26, "target": 31, "weight": 0.017}, {"source": 22, "target": 26, "weight": 0.0281}, {"source": 230, "target": 234, "weight": 0.0217}, {"source": 4, "target": 47, "weight": 0.2109}, {"source": 4, "target": 26, "weight": 0.0915}, {"source": 2, "target": 4, "weight": 0.0515}, {"source": 1, "target": 4, "weight": 0.0767}, {"source": 75, "target": 201, "weight": 0.0622}, {"source": 47, "target": 75, "weight": 0.032}, {"source": 65, "target": 75, "weight": 0.0143}, {"source": 75, "target": 108, "weight": 0.0168}, {"source": 74, "target": 75, "weight": 0.0106}, {"source": 75, "target": 151, "weight": 0.0348}, {"source": 75, "target": 116, "weight": 0.0202}, {"source": 75, "target": 87, "weight": 0.0085}, {"source": 71, "target": 118, "weight": 0.024}, {"source": 67, "target": 71, "weight": 0.0262}, {"source": 71, "target": 90, "weight": 0.0143}, {"source": 57, "target": 71, "weight": 0.0197}, {"source": 71, "target": 77, "weight": 0.0053}, {"source": 62, "target": 166, "weight": 0.0605}, {"source": 62, "target": 67, "weight": 0.0786}, {"source": 62, "target": 144, "weight": 0.0511}, {"source": 45, "target": 62, "weight": 0.049}, {"source": 50, "target": 62, "weight": 0.0302}, {"source": 62, "target": 63, "weight": 0.0133}, {"source": 46, "target": 62, "weight": 0.0215}, {"source": 40, "target": 62, "weight": 0.0377}, {"source": 55, "target": 62, "weight": 0.0191}, {"source": 61, "target": 62, "weight": 0.0201}, {"source": 150, "target": 325, "weight": 0.2238}, {"source": 311, "target": 325, "weight": 0.1105}, {"source": 147, "target": 325, "weight": 0.2247}, {"source": 299, "target": 325, "weight": 0.1326}, {"source": 221, "target": 325, "weight": 0.1877}, {"source": 273, "target": 325, "weight": 0.1612}, {"source": 100, "target": 118, "weight": 0.0186}, {"source": 100, "target": 152, "weight": 0.0312}, {"source": 100, "target": 137, "weight": 0.0175}, {"source": 223, "target": 230, "weight": 0.0084}, {"source": 152, "target": 252, "weight": 0.0654}, {"source": 162, "target": 252, "weight": 0.0621}, {"source": 221, "target": 252, "weight": 0.021}, {"source": 111, "target": 118, "weight": 0.0123}, {"source": 111, "target": 112, "weight": 0.0112}, {"source": 67, "target": 111, "weight": 0.0465}, {"source": 111, "target": 152, "weight": 0.0318}, {"source": 111, "target": 161, "weight": 0.0233}, {"source": 71, "target": 111, "weight": 0.0252}, {"source": 100, "target": 111, "weight": 0.0071}, {"source": 132, "target": 152, "weight": 0.0243}, {"source": 132, "target": 230, "weight": 0.0643}, {"source": 132, "target": 174, "weight": 0.0212}, {"source": 118, "target": 140, "weight": 0.0464}, {"source": 140, "target": 182, "weight": 0.0382}, {"source": 82, "target": 140, "weight": 0.0261}, {"source": 106, "target": 140, "weight": 0.015}, {"source": 201, "target": 214, "weight": 0.0103}, {"source": 82, "target": 118, "weight": 0.0475}, {"source": 82, "target": 182, "weight": 0.0564}, {"source": 67, "target": 82, "weight": 0.0219}, {"source": 82, "target": 144, "weight": 0.0821}, {"source": 82, "target": 130, "weight": 0.0376}, {"source": 76, "target": 82, "weight": 0.0325}, {"source": 152, "target": 186, "weight": 0.0214}, {"source": 186, "target": 192, "weight": 0.0156}, {"source": 84, "target": 118, "weight": 0.0245}, {"source": 118, "target": 191, "weight": 0.0376}, {"source": 182, "target": 191, "weight": 0.0159}, {"source": 152, "target": 191, "weight": 0.0439}, {"source": 167, "target": 191, "weight": 0.0172}, {"source": 255, "target": 259, "weight": 0.0128}, {"source": 230, "target": 259, "weight": 0.0184}, {"source": 249, "target": 259, "weight": 0.007}, {"source": 259, "target": 273, "weight": 0.0125}, {"source": 182, "target": 206, "weight": 0.0211}, {"source": 148, "target": 182, "weight": 0.0186}, {"source": 118, "target": 173, "weight": 0.1001}, {"source": 173, "target": 261, "weight": 0.0786}, {"source": 173, "target": 248, "weight": 0.0774}, {"source": 166, "target": 173, "weight": 0.0114}, {"source": 51, "target": 118, "weight": 0.0655}, {"source": 51, "target": 67, "weight": 0.0267}, {"source": 51, "target": 82, "weight": 0.0319}, {"source": 272, "target": 283, "weight": 0.0295}, {"source": 266, "target": 272, "weight": 0.0289}, {"source": 218, "target": 235, "weight": 0.0118}, {"source": 118, "target": 158, "weight": 0.0186}, {"source": 158, "target": 182, "weight": 0.0162}, {"source": 152, "target": 158, "weight": 0.0412}, {"source": 158, "target": 161, "weight": 0.0207}, {"source": 148, "target": 158, "weight": 0.0094}, {"source": 158, "target": 171, "weight": 0.0074}, {"source": 113, "target": 152, "weight": 0.0271}, {"source": 113, "target": 174, "weight": 0.0292}, {"source": 73, "target": 118, "weight": 0.022}, {"source": 73, "target": 94, "weight": 0.0129}, {"source": 71, "target": 73, "weight": 0.003}, {"source": 69, "target": 73, "weight": 0.0077}, {"source": 73, "target": 77, "weight": 0.0026}, {"source": 162, "target": 243, "weight": 0.0552}, {"source": 221, "target": 243, "weight": 0.0159}, {"source": 117, "target": 152, "weight": 0.0152}, {"source": 76, "target": 144, "weight": 0.0551}, {"source": 47, "target": 59, "weight": 0.0197}, {"source": 59, "target": 144, "weight": 0.0638}, {"source": 45, "target": 59, "weight": 0.0152}, {"source": 54, "target": 59, "weight": 0.0113}, {"source": 93, "target": 118, "weight": 0.0232}, {"source": 93, "target": 152, "weight": 0.0297}, {"source": 93, "target": 100, "weight": 0.0047}, {"source": 108, "target": 201, "weight": 0.0455}, {"source": 65, "target": 108, "weight": 0.0307}, {"source": 78, "target": 79, "weight": 0.0063}, {"source": 110, "target": 152, "weight": 0.0458}, {"source": 110, "target": 162, "weight": 0.0286}, {"source": 152, "target": 210, "weight": 0.0373}, {"source": 81, "target": 118, "weight": 0.1173}, {"source": 81, "target": 144, "weight": 0.0277}, {"source": 81, "target": 85, "weight": 0.0069}, {"source": 50, "target": 67, "weight": 0.1082}, {"source": 50, "target": 144, "weight": 0.0596}, {"source": 224, "target": 261, "weight": 0.1148}, {"source": 201, "target": 224, "weight": 0.0268}, {"source": 183, "target": 224, "weight": 0.0338}, {"source": 182, "target": 220, "weight": 0.0327}, {"source": 190, "target": 230, "weight": 0.0307}, {"source": 177, "target": 190, "weight": 0.0092}, {"source": 190, "target": 202, "weight": 0.0083}, {"source": 53, "target": 166, "weight": 0.0701}, {"source": 53, "target": 67, "weight": 0.0424}, {"source": 53, "target": 144, "weight": 0.0809}, {"source": 53, "target": 82, "weight": 0.0367}, {"source": 41, "target": 53, "weight": 0.0145}, {"source": 63, "target": 166, "weight": 0.0656}, {"source": 63, "target": 67, "weight": 0.0918}, {"source": 63, "target": 144, "weight": 0.0479}, {"source": 45, "target": 63, "weight": 0.037}, {"source": 50, "target": 63, "weight": 0.0185}, {"source": 46, "target": 63, "weight": 0.0163}, {"source": 55, "target": 63, "weight": 0.0089}, {"source": 33, "target": 47, "weight": 0.0895}, {"source": 29, "target": 33, "weight": 0.0247}, {"source": 32, "target": 33, "weight": 0.0113}, {"source": 52, "target": 67, "weight": 0.0194}, {"source": 69, "target": 118, "weight": 0.0283}, {"source": 69, "target": 71, "weight": 0.0084}, {"source": 57, "target": 69, "weight": 0.0198}, {"source": 85, "target": 261, "weight": 0.1272}, {"source": 85, "target": 144, "weight": 0.0261}, {"source": 85, "target": 97, "weight": 0.0064}, {"source": 163, "target": 182, "weight": 0.011}, {"source": 261, "target": 294, "weight": 0.032}, {"source": 46, "target": 67, "weight": 0.0958}, {"source": 46, "target": 144, "weight": 0.0641}, {"source": 46, "target": 50, "weight": 0.0149}, {"source": 46, "target": 55, "weight": 0.009}, {"source": 115, "target": 152, "weight": 0.0233}, {"source": 103, "target": 115, "weight": 0.0038}, {"source": 106, "target": 118, "weight": 0.0434}, {"source": 82, "target": 106, "weight": 0.0113}, {"source": 103, "target": 152, "weight": 0.0271}, {"source": 39, "target": 47, "weight": 0.013}, {"source": 39, "target": 65, "weight": 0.0306}, {"source": 39, "target": 142, "weight": 0.0835}, {"source": 6, "target": 13, "weight": 0.0143}, {"source": 7, "target": 13, "weight": 0.014}, {"source": 13, "target": 21, "weight": 0.0098}, {"source": 13, "target": 18, "weight": 0.0055}, {"source": 13, "target": 17, "weight": 0.006}, {"source": 12, "target": 13, "weight": 0.002}, {"source": 13, "target": 20, "weight": 0.0112}, {"source": 13, "target": 19, "weight": 0.0095}, {"source": 10, "target": 13, "weight": 0.0023}, {"source": 9, "target": 13, "weight": 0.0053}, {"source": 13, "target": 14, "weight": 0.0009}, {"source": 13, "target": 15, "weight": 0.0011}, {"source": 266, "target": 286, "weight": 0.0315}, {"source": 266, "target": 271, "weight": 0.0102}, {"source": 266, "target": 267, "weight": 0.0091}, {"source": 182, "target": 226, "weight": 0.0385}, {"source": 220, "target": 226, "weight": 0.0064}, {"source": 79, "target": 118, "weight": 0.025}, {"source": 67, "target": 79, "weight": 0.0138}, {"source": 208, "target": 258, "weight": 0.0416}, {"source": 152, "target": 187, "weight": 0.0235}, {"source": 44, "target": 67, "weight": 0.0356}, {"source": 41, "target": 67, "weight": 0.0522}, {"source": 201, "target": 228, "weight": 0.0244}, {"source": 228, "target": 236, "weight": 0.0033}, {"source": 261, "target": 282, "weight": 0.0223}, {"source": 47, "target": 142, "weight": 0.0714}, {"source": 142, "target": 144, "weight": 0.0194}, {"source": 65, "target": 142, "weight": 0.0572}, {"source": 45, "target": 142, "weight": 0.0655}, {"source": 76, "target": 142, "weight": 0.0717}, {"source": 121, "target": 142, "weight": 0.0629}, {"source": 321, "target": 323, "weight": 0.0061}, {"source": 98, "target": 144, "weight": 0.0347}, {"source": 76, "target": 98, "weight": 0.0204}, {"source": 8, "target": 27, "weight": 0.0351}, {"source": 56, "target": 59, "weight": 0.0078}, {"source": 40, "target": 144, "weight": 0.0728}, {"source": 40, "target": 45, "weight": 0.018}, {"source": 40, "target": 50, "weight": 0.0133}, {"source": 40, "target": 46, "weight": 0.0167}, {"source": 40, "target": 55, "weight": 0.02}, {"source": 74, "target": 201, "weight": 0.0637}, {"source": 42, "target": 47, "weight": 0.0089}, {"source": 138, "target": 201, "weight": 0.0333}, {"source": 138, "target": 183, "weight": 0.0253}, {"source": 124, "target": 138, "weight": 0.0076}, {"source": 151, "target": 201, "weight": 0.0276}, {"source": 65, "target": 151, "weight": 0.0485}, {"source": 66, "target": 151, "weight": 0.0422}, {"source": 261, "target": 268, "weight": 0.0143}, {"source": 118, "target": 154, "weight": 0.0152}, {"source": 154, "target": 182, "weight": 0.018}, {"source": 154, "target": 164, "weight": 0.0062}, {"source": 154, "target": 171, "weight": 0.0128}, {"source": 193, "target": 201, "weight": 0.0063}, {"source": 102, "target": 118, "weight": 0.0236}, {"source": 102, "target": 182, "weight": 0.0378}, {"source": 102, "target": 120, "weight": 0.0073}, {"source": 102, "target": 107, "weight": 0.0087}, {"source": 316, "target": 317, "weight": 0.0028}, {"source": 314, "target": 317, "weight": 0.0036}, {"source": 88, "target": 118, "weight": 0.0142}, {"source": 29, "target": 47, "weight": 0.1134}, {"source": 55, "target": 144, "weight": 0.0556}, {"source": 50, "target": 55, "weight": 0.0112}, {"source": 184, "target": 293, "weight": 0.1008}, {"source": 231, "target": 258, "weight": 0.0164}, {"source": 118, "target": 153, "weight": 0.0994}, {"source": 153, "target": 248, "weight": 0.0845}, {"source": 67, "target": 153, "weight": 0.0829}, {"source": 153, "target": 293, "weight": 0.1171}, {"source": 153, "target": 203, "weight": 0.0806}, {"source": 3, "target": 5, "weight": 0.0269}, {"source": 118, "target": 164, "weight": 0.0211}, {"source": 164, "target": 182, "weight": 0.0128}, {"source": 8, "target": 24, "weight": 0.0414}, {"source": 23, "target": 24, "weight": 0.01}, {"source": 118, "target": 134, "weight": 0.0768}, {"source": 261, "target": 277, "weight": 0.0122}, {"source": 47, "target": 58, "weight": 0.0288}, {"source": 58, "target": 65, "weight": 0.0294}, {"source": 58, "target": 59, "weight": 0.0107}, {"source": 56, "target": 58, "weight": 0.018}, {"source": 54, "target": 58, "weight": 0.0036}, {"source": 180, "target": 182, "weight": 0.0095}, {"source": 269, "target": 270, "weight": 0.0035}, {"source": 57, "target": 118, "weight": 0.0435}, {"source": 57, "target": 70, "weight": 0.0199}, {"source": 47, "target": 54, "weight": 0.0273}, {"source": 107, "target": 118, "weight": 0.0149}, {"source": 47, "target": 48, "weight": 0.0107}, {"source": 48, "target": 65, "weight": 0.0212}, {"source": 48, "target": 49, "weight": 0.0048}, {"source": 327, "target": 330, "weight": 0.0935}, {"source": 45, "target": 61, "weight": 0.0302}, {"source": 50, "target": 61, "weight": 0.0123}, {"source": 61, "target": 63, "weight": 0.007}, {"source": 40, "target": 61, "weight": 0.0242}, {"source": 55, "target": 61, "weight": 0.0067}, {"source": 182, "target": 211, "weight": 0.0181}, {"source": 182, "target": 209, "weight": 0.0261}, {"source": 206, "target": 209, "weight": 0.0058}, {"source": 327, "target": 328, "weight": 0.0093}, {"source": 97, "target": 104, "weight": 0.0105}, {"source": 118, "target": 155, "weight": 0.0157}, {"source": 1, "target": 8, "weight": 0.1026}, {"source": 1, "target": 2, "weight": 0.0436}, {"source": 199, "target": 201, "weight": 0.0072}, {"source": 122, "target": 163, "weight": 0.022}, {"source": 16, "target": 22, "weight": 0.0311}, {"source": 118, "target": 145, "weight": 0.02}, {"source": 145, "target": 182, "weight": 0.0198}, {"source": 130, "target": 145, "weight": 0.0071}, {"source": 145, "target": 148, "weight": 0.0074}, {"source": 65, "target": 116, "weight": 0.0331}, {"source": 108, "target": 116, "weight": 0.0062}, {"source": 74, "target": 116, "weight": 0.0203}, {"source": 116, "target": 151, "weight": 0.0159}, {"source": 66, "target": 116, "weight": 0.0271}, {"source": 47, "target": 60, "weight": 0.0242}, {"source": 60, "target": 65, "weight": 0.0225}, {"source": 59, "target": 60, "weight": 0.0046}, {"source": 56, "target": 60, "weight": 0.0124}, {"source": 58, "target": 60, "weight": 0.0069}, {"source": 54, "target": 60, "weight": 0.0087}, {"source": 60, "target": 64, "weight": 0.0048}, {"source": 49, "target": 60, "weight": 0.0119}, {"source": 29, "target": 31, "weight": 0.0125}, {"source": 31, "target": 32, "weight": 0.0043}, {"source": 321, "target": 324, "weight": 0.005}, {"source": 65, "target": 87, "weight": 0.0223}, {"source": 66, "target": 87, "weight": 0.0156}, {"source": 194, "target": 221, "weight": 0.0207}, {"source": 165, "target": 201, "weight": 0.021}, {"source": 130, "target": 160, "weight": 0.0148}, {"source": 182, "target": 195, "weight": 0.0118}, {"source": 155, "target": 171, "weight": 0.0094}, {"source": 6, "target": 7, "weight": 0.0197}, {"source": 7, "target": 8, "weight": 0.0488}, {"source": 8, "target": 38, "weight": 0.1622}, {"source": 36, "target": 38, "weight": 0.0549}, {"source": 37, "target": 38, "weight": 0.0478}, {"source": 25, "target": 26, "weight": 0.0057}, {"source": 35, "target": 36, "weight": 0.0232}, {"source": 28, "target": 35, "weight": 0.0425}, {"source": 150, "target": 320, "weight": 0.2143}, {"source": 311, "target": 320, "weight": 0.0968}, {"source": 147, "target": 320, "weight": 0.2151}, {"source": 320, "target": 324, "weight": 0.0054}, {"source": 182, "target": 207, "weight": 0.0151}, {"source": 195, "target": 207, "weight": 0.0058}, {"source": 64, "target": 65, "weight": 0.0191}, {"source": 59, "target": 64, "weight": 0.0057}, {"source": 118, "target": 168, "weight": 0.0993}, {"source": 168, "target": 258, "weight": 0.0647}, {"source": 144, "target": 168, "weight": 0.028}, {"source": 201, "target": 205, "weight": 0.0099}, {"source": 47, "target": 49, "weight": 0.0154}, {"source": 49, "target": 56, "weight": 0.0087}, {"source": 8, "target": 37, "weight": 0.1999}, {"source": 8, "target": 34, "weight": 0.0774}, {"source": 124, "target": 201, "weight": 0.0408}, {"source": 17, "target": 19, "weight": 0.0038}, {"source": 17, "target": 20, "weight": 0.0053}, {"source": 19, "target": 20, "weight": 0.0018}, {"source": 30, "target": 34, "weight": 0.0184}, {"source": 10, "target": 12, "weight": 0.001}, {"source": 9, "target": 10, "weight": 0.003}, {"source": 9, "target": 12, "weight": 0.0037}, {"source": 11, "target": 13, "weight": 0.0033}, {"source": 10, "target": 11, "weight": 0.0011}, {"source": 9, "target": 11, "weight": 0.0022}, {"source": 315, "target": 316, "weight": 0.0013}, {"source": 315, "target": 317, "weight": 0.0022}]}